{
"type": "FeatureCollection",
"crs": { "type": "name", "properties": { "name": "urn:ogc:def:crs:OGC:1.3:CRS84" } },
"features": [
{ "type": "Feature", "properties": { "name": "NATHPA", "stationCode": "003-SHDSIM", "lat": 31.566388888888891, "lon": 77.983055555555552, "index_right": 0, "STATE": "HIM>CHAL PRADESH", "State_LGD": 2, "Shape_Leng": 1690412.8218499999, "Shape_Area": 54774750622.199997 }, "geometry": { "type": "Point", "coordinates": [ 77.983055555555552, 31.566388888888891 ] } },
{ "type": "Feature", "properties": { "name": "Gaura", "stationCode": "036-UYDDEL", "lat": 30.897222222222226, "lon": 77.196666666666673, "index_right": 0, "STATE": "HIM>CHAL PRADESH", "State_LGD": 2, "Shape_Leng": 1690412.8218499999, "Shape_Area": 54774750622.199997 }, "geometry": { "type": "Point", "coordinates": [ 77.196666666666673, 30.897222222222226 ] } },
{ "type": "Feature", "properties": { "name": "MOORANG", "stationCode": "002-SHDSIM(a)", "lat": 31.605555555555561, "lon": 78.435833333333335, "index_right": 0, "STATE": "HIM>CHAL PRADESH", "State_LGD": 2, "Shape_Leng": 1690412.8218499999, "Shape_Area": 54774750622.199997 }, "geometry": { "type": "Point", "coordinates": [ 78.435833333333335, 31.605555555555561 ] } },
{ "type": "Feature", "properties": { "name": "Dadahu/Renuka", "stationCode": "034-UYDDEL", "lat": 30.604444444444447, "lon": 77.441111111111113, "index_right": 0, "STATE": "HIM>CHAL PRADESH", "State_LGD": 2, "Shape_Leng": 1690412.8218499999, "Shape_Area": 54774750622.199997 }, "geometry": { "type": "Point", "coordinates": [ 77.441111111111113, 30.604444444444447 ] } },
{ "type": "Feature", "properties": { "name": "Yashwant Nagar", "stationCode": "006-UYDDEL", "lat": 30.882222222222222, "lon": 77.209444444444443, "index_right": 0, "STATE": "HIM>CHAL PRADESH", "State_LGD": 2, "Shape_Leng": 1690412.8218499999, "Shape_Area": 54774750622.199997 }, "geometry": { "type": "Point", "coordinates": [ 77.209444444444443, 30.882222222222222 ] } },
{ "type": "Feature", "properties": { "name": "Kheri", "stationCode": "037-UYDDEL", "lat": 30.78, "lon": 77.297777777777782, "index_right": 0, "STATE": "HIM>CHAL PRADESH", "State_LGD": 2, "Shape_Leng": 1690412.8218499999, "Shape_Area": 54774750622.199997 }, "geometry": { "type": "Point", "coordinates": [ 77.297777777777782, 30.78 ] } },
{ "type": "Feature", "properties": { "name": "Ganguwala", "stationCode": "035-UYDDEL", "lat": 30.43694444444445, "lon": 77.578611111111101, "index_right": 0, "STATE": "HIM>CHAL PRADESH", "State_LGD": 2, "Shape_Leng": 1690412.8218499999, "Shape_Area": 54774750622.199997 }, "geometry": { "type": "Point", "coordinates": [ 77.578611111111101, 30.43694444444445 ] } },
{ "type": "Feature", "properties": { "name": "POWARI (Shifted to moorang)", "stationCode": "002-SHDSIM", "lat": 31.53305555555556, "lon": 78.283055555555549, "index_right": 0, "STATE": "HIM>CHAL PRADESH", "State_LGD": 2, "Shape_Leng": 1690412.8218499999, "Shape_Area": 54774750622.199997 }, "geometry": { "type": "Point", "coordinates": [ 78.283055555555549, 31.53305555555556 ] } },
{ "type": "Feature", "properties": { "name": "TITANG", "stationCode": "001-SHDSIM", "lat": 31.766944444444444, "lon": 78.636388888888902, "index_right": 0, "STATE": "HIM>CHAL PRADESH", "State_LGD": 2, "Shape_Leng": 1690412.8218499999, "Shape_Area": 54774750622.199997 }, "geometry": { "type": "Point", "coordinates": [ 78.636388888888902, 31.766944444444444 ] } },
{ "type": "Feature", "properties": { "name": "Ropa", "stationCode": "IBO-2-062-0548", "lat": 31.799722222222226, "lon": 78.415, "index_right": 0, "STATE": "HIM>CHAL PRADESH", "State_LGD": 2, "Shape_Leng": 1690412.8218499999, "Shape_Area": 54774750622.199997 }, "geometry": { "type": "Point", "coordinates": [ 78.415, 31.799722222222226 ] } },
{ "type": "Feature", "properties": { "name": "PANDOA", "stationCode": "005-SHDSIM", "lat": 31.266388888888891, "lon": 77.299722222222215, "index_right": 0, "STATE": "HIM>CHAL PRADESH", "State_LGD": 2, "Shape_Leng": 1690412.8218499999, "Shape_Area": 54774750622.199997 }, "geometry": { "type": "Point", "coordinates": [ 77.299722222222215, 31.266388888888891 ] } },
{ "type": "Feature", "properties": { "name": "Jateon Barrage", "stationCode": "007-UYDDEL", "lat": 30.5876, "lon": 77.468455555555551, "index_right": 0, "STATE": "HIM>CHAL PRADESH", "State_LGD": 2, "Shape_Leng": 1690412.8218499999, "Shape_Area": 54774750622.199997 }, "geometry": { "type": "Point", "coordinates": [ 77.468455555555551, 30.5876 ] } },
{ "type": "Feature", "properties": { "name": "BAROT", "stationCode": "006-SHDSIM", "lat": 32.046666666666667, "lon": 76.833055555555546, "index_right": 0, "STATE": "HIM>CHAL PRADESH", "State_LGD": 2, "Shape_Leng": 1690412.8218499999, "Shape_Area": 54774750622.199997 }, "geometry": { "type": "Point", "coordinates": [ 76.833055555555546, 32.046666666666667 ] } },
{ "type": "Feature", "properties": { "name": "Sangla", "stationCode": "IBO-2-063-0549", "lat": 31.4225, "lon": 78.265, "index_right": 0, "STATE": "HIM>CHAL PRADESH", "State_LGD": 2, "Shape_Leng": 1690412.8218499999, "Shape_Area": 54774750622.199997 }, "geometry": { "type": "Point", "coordinates": [ 78.265, 31.4225 ] } },
{ "type": "Feature", "properties": { "name": "Shalkhar", "stationCode": "IBO-1-058-0544", "lat": 31.999166666666667, "lon": 78.573333333333323, "index_right": 0, "STATE": "HIM>CHAL PRADESH", "State_LGD": 2, "Shape_Leng": 1690412.8218499999, "Shape_Area": 54774750622.199997 }, "geometry": { "type": "Point", "coordinates": [ 78.573333333333323, 31.999166666666667 ] } },
{ "type": "Feature", "properties": { "name": "GHOUSHAL", "stationCode": "019-chejmu", "lat": 32.533055555555563, "lon": 76.933055555555555, "index_right": 0, "STATE": "HIM>CHAL PRADESH", "State_LGD": 2, "Shape_Leng": 1690412.8218499999, "Shape_Area": 54774750622.199997 }, "geometry": { "type": "Point", "coordinates": [ 76.933055555555555, 32.533055555555563 ] } },
{ "type": "Feature", "properties": { "name": "GULLING", "stationCode": "IBO-1-057-0543", "lat": 32.0425, "lon": 78.081944444444446, "index_right": 0, "STATE": "HIM>CHAL PRADESH", "State_LGD": 2, "Shape_Leng": 1690412.8218499999, "Shape_Area": 54774750622.199997 }, "geometry": { "type": "Point", "coordinates": [ 78.081944444444446, 32.0425 ] } },
{ "type": "Feature", "properties": { "name": "RAMPUR_1", "stationCode": "004-SHDSIM", "lat": 31.45, "lon": 77.63333333333334, "index_right": 0, "STATE": "HIM>CHAL PRADESH", "State_LGD": 2, "Shape_Leng": 1690412.8218499999, "Shape_Area": 54774750622.199997 }, "geometry": { "type": "Point", "coordinates": [ 77.63333333333334, 31.45 ] } },
{ "type": "Feature", "properties": { "name": "UDAIPUR", "stationCode": "020-chejmu", "lat": 32.699722222222221, "lon": 76.649722222222223, "index_right": 0, "STATE": "HIM>CHAL PRADESH", "State_LGD": 2, "Shape_Leng": 1690412.8218499999, "Shape_Area": 54774750622.199997 }, "geometry": { "type": "Point", "coordinates": [ 76.649722222222223, 32.699722222222221 ] } },
{ "type": "Feature", "properties": { "name": "TANDI", "stationCode": "021-CHEJMU", "lat": 32.550277777777772, "lon": 76.979722222222222, "index_right": 0, "STATE": "HIM>CHAL PRADESH", "State_LGD": 2, "Shape_Leng": 1690412.8218499999, "Shape_Area": 54774750622.199997 }, "geometry": { "type": "Point", "coordinates": [ 76.979722222222222, 32.550277777777772 ] } },
{ "type": "Feature", "properties": { "name": "HANSA", "stationCode": "IBO-1-056-0542", "lat": 32.448611111111106, "lon": 77.862777777777765, "index_right": 0, "STATE": "HIM>CHAL PRADESH", "State_LGD": 2, "Shape_Leng": 1690412.8218499999, "Shape_Area": 54774750622.199997 }, "geometry": { "type": "Point", "coordinates": [ 77.862777777777765, 32.448611111111106 ] } },
{ "type": "Feature", "properties": { "name": "Khab", "stationCode": "IBO-1-059-0545", "lat": 31.804444444444449, "lon": 78.642777777777781, "index_right": 0, "STATE": "HIM>CHAL PRADESH", "State_LGD": 2, "Shape_Leng": 1690412.8218499999, "Shape_Area": 54774750622.199997 }, "geometry": { "type": "Point", "coordinates": [ 78.642777777777781, 31.804444444444449 ] } },
{ "type": "Feature", "properties": { "name": "Ghaluwal", "stationCode": "IBO-1-060-0546", "lat": 31.480833333333333, "lon": 76.221111111111114, "index_right": 0, "STATE": "HIM>CHAL PRADESH", "State_LGD": 2, "Shape_Leng": 1690412.8218499999, "Shape_Area": 54774750622.199997 }, "geometry": { "type": "Point", "coordinates": [ 76.221111111111114, 31.480833333333333 ] } },
{ "type": "Feature", "properties": { "name": "MIYAR NALLAH", "stationCode": "022-CHEJMU", "lat": 32.716666666666669, "lon": 76.666388888888889, "index_right": 0, "STATE": "HIM>CHAL PRADESH", "State_LGD": 2, "Shape_Leng": 1690412.8218499999, "Shape_Area": 54774750622.199997 }, "geometry": { "type": "Point", "coordinates": [ 76.666388888888889, 32.716666666666669 ] } }
]
}
