Sr.No,District,Disaster Type,Disaster Date,Section,Gram Panchayat,Asset Category,Name of the Road,Total Length of Road (in Km),Road Category,Road Types (materials),Road Type Material (other),RD/Location name,Length of Totally Damaged Roads (in meters),Length of Severely Damaged Roads (in meters),Length of Minor Damaged Roads (in Meters),Retaining Wall Damaged,Length of Retaining Wall Damaged (in meters),Breast Wall Damaged,Length of Breast Wall Damaged (in meters),Severity of Hume Pipe Damage,Number of Hume Pipes Damaged,Severity of Slab / Box Culvert Damage,Number of Slab / Box Culvert Damage,Severeity of Causeway Damage,Number of Causeway  Damaged,Roadside Drainage Damaged,Length of Roadside Drainage Damaged (in meters),Estimated Amount (in Lakhs),Remarks,Latitude,Longitude,,,
1,Bilaspur,Excessive Rain,21-07-2025,Buhad(Kalol),Ghran,Roads,Talai Dhani,7,Village Road,Black Top,,2/135,30,30,0,Totally Damaged,30,,,,,,,,,Minor Damage,50,3,,31.420311,76.536468,Self Visit,,
2,Bilaspur,Landslide,29-06-2025,Berthin(Berthin),,Roads,TB road (MDR-116) km 4/00 to 14/500,30,Major District Road,Black Top,,4/00 TO 14/500,15,15,0,,,,,Minor Damage,1,Minor Damaged,1,,,Minor Damage,15,1,,31.33,74.36,Self Visit,,
3,Bilaspur,Excessive Rain,21-07-2025,Kalol(Kalol),Salwad,Roads,Marotan to Baghchhal,4,Village Road,Black Top,,3/850,30,30,0,,,Minor Damage,20,,,,,,,Severely Damaged,30,2.5,,31.282234,76.673649,Self Visit,,
4,Bilaspur,Excessive Rain,22-07-2025,Buhad(Kalol),Malraoun ,Roads,Gangloh Malraoun ,18,Village Road,Black Top,,13/400,15,15,0,Totally Damaged,15,,,,,,,,,Minor Damage,50,4.5,,31.346034,76.573232,Self Visit,,
5,Bilaspur,Landslide,15-07-2025,Jhandutta(Jhandutta),Balghar,Roads,Jhandutta-BharoliKalan,10,Village Road,Black Top,,6/700 to 6/750,150,150,50,Minor Damage,150,Minor Damage,60,Totally Damaged,1,Severely Damaged,1,Minor Damaged,2,Severely Damaged,200,3,,31.374473,76.6068791,Self Visit,,
6,Bilaspur,Landslide,16-07-2025,Buhad(Kalol),Jaddu kuljair,Roads,Gangloh malraon,18,Village Road,Black Top,,9/300,10,10,0,Minor Damage,10,,,,,,,,,Severely Damaged,20,1,,31.360193,76.563292,Self Visit,,
7,Bilaspur,Excessive Rain,22-07-2025,Chharol(Sub-divn. no-3),CHHAROL,Roads,National Highway No.205,11,Major District Road,Black Top,,111/810 to 111/840,30,,30,,,Minor Damage,30,,,,,,,Severely Damaged,30,0.7,"Road Crust & Slips ,pot hole ",31.25,76.77,Self Visit,,
8,Bilaspur,Landslide,16-07-2025,Marotan(Kalol),Salwad,Roads,Marothan dhani,8,Village Road,Black Top,,2/900,50,50,0,,,,,Totally Damaged,1,,,,,Minor Damage,50,2,,31.279879,76.651058,Recieved from Others,Sh. rohit kaushal ,7018877350
9,Bilaspur,Landslide,21-07-2025,Kalol(Kalol),Paploa,Roads,Buhad to malhot,5.79,Village Road,Black Top,,4/040,100,100,0,,,,,,,,,,,Totally Damaged,100,2.5,,31.291475,76.648962,Self Visit,,
10,Bilaspur,Excessive Rain,21-07-2025,N.b.t. (changer)(Sub-divn. no-2 bilaspur.),MC Bilaspur,Roads,Circular road roura,1.99,Village Road,Black Top,,0/420 to 0/430,30,10,,Minor Damage,10,Minor Damage,,,,,,,,,,1.55,,31.344495,76.76218,Self Visit,,
11,Bilaspur,Landslide,16-07-2025,Kalol(Kalol),Kalol,Roads,BJSM ROAD,20,Village Road,Black Top,,6/300,100,,100,,,,,,,,,,,Severely Damaged,600,3,,31.330815,76.623862,Self Visit,,
12,Bilaspur,Excessive Rain,16-07-2025,Kalol(Kalol),Salwad,Roads,Marotan to Baghchhal,4,Village Road,Black Top,,3/450,50,50,0,,,,,,,,,,,Severely Damaged,60,4,,31.279775,76.67573,Self Visit,,
13,Bilaspur,Excessive Rain,21-07-2025,Buhad(Kalol),Dudiyan,Roads,Dholak chaknar to gah,5.2,Village Road,Black Top,,0.450,10,10,0,,,Minor Damage,10,,,,,,,Minor Damage,20,0.5,Landslides ,31.319367,76.613416,Self Visit,,
14,Bilaspur,Excessive Rain,21-07-2025,Bandla(Sub-divn. no-2 bilaspur.),Sihra,Roads,Binayakghat Bandla Sihra Bilaspur road,23,Major District Road,Black Top,,15/765 to 15/780,15,15,,Minor Damage,15,Minor Damage,0,,,,,,,,,2.25,,31.356484,76.787591,Self Visit,,
15,Bilaspur,Excessive Rain,15-07-2025,Nauni(Sub-divn. no-2 bilaspur.),,Roads,LINK ROAD LAKHNPUR TO DAV SCHOOL CHANGER VIA FOREST REST HOUSE,3,Village Road,Black Top,BLACK TOP & KATCHA ROAD,0 TO 20,1700,750,950,Totally Damaged,70,Minor Damage,65,Totally Damaged,1,,,,,Minor Damage,400,2.5,,31.193,76.4553,Self Visit,,
16,Bilaspur,Excessive Rain,13-07-2025,Nauni(Sub-divn. no-2 bilaspur.),MC AREA,Roads,NH21 TO BABA NAHAR SINGH JI TEMPLE DHOLRA,0.8,Village Road,Black Top,,0 TO 800,400,250,150,Minor Damage,60,Minor Damage,20,,,,,,,Minor Damage,200,0.7,,31.1957,76.4531,Self Visit,,
17,Bilaspur,Excessive Rain,21-07-2025,Bandla(Sub-divn. no-2 bilaspur.),Seola,Roads,Binayakghat Manjhot road Km. 0/00 to 2/500,2.5,Village Road,Black Top,,1/215 to 1/230,15,15,,Minor Damage,15,Minor Damage,12,,,,,,,,,3.5,,31.280382,76.807641,Self Visit,,
18,Bilaspur,Excessive Rain,16-07-2025,Deoth(Sub-divn. no-3),Deoth ,Roads,Brahmpukhar Deoth Shelli Road,11.48,Village Road,Black Top,,4.300 to 4.360,60,60,0,,,,,,,,,,,Minor Damage,30,2,,33,76.81,Self Visit,,
19,Bilaspur,Excessive Rain,07-07-2025,Deoth(Sub-divn. no-3),Deoth ,Roads, Deoth to  Dabbar  Road ,10.96,Village Road,Black Top,,7.285 to 7.300,15,15,0,Totally Damaged,15,,,,,,,,,,,3,,31.24,76.84,Recieved from Others,Work inspector ,8219427152
20,Bilaspur,Excessive Rain,10-07-2025,Deoth(Sub-divn. no-3),Methi,Roads,Deoth Lagghat Jamli Road,13.16,Village Road,Black Top,,6.690 to 6.710,20,20,,Severely Damaged,125,,,,,,,,,,,5,,31.23,76.8,Self Visit,,
21,Bilaspur,Excessive Rain,04-07-2025,Store (dholra)(Sub-divn. no-3),Kallar ,Roads, National Highway on Chandigarh Mandi Manali Road,5,Major District Road,Black Top,,119/075  to 119/105,30,30,,,,Totally Damaged,30,,,,,,,,,2.5,,31.28,76.75,Self Visit,,
22,Bilaspur,Excessive Rain,15-07-2025,Chharol(Sub-divn. no-3),Methi ,Roads,Lagghat to Jainagar road ,1.27,Village Road,Black Top,,RD 0/40 to  0/070,30,30,0,Severely Damaged,2,,,,,,,,,,,2.5,R/wall ,31.22,76.79,Self Visit,,
23,Bilaspur,Excessive Rain,14-07-2025,Chharol(Sub-divn. no-3),Methi ,Roads,Deoth Lagghat Jamli Road,13.16,Village Road,Black Top,,RD 8/00 to 8/020,20,,20,,,Severely Damaged,20,,,,,,,,,3.5,B/wall ,31.23,76.78,Self Visit,,
24,Bilaspur,Excessive Rain,10-07-2025,Chharol(Sub-divn. no-3),Chharol ,Roads,Link road NH 21 Jamli to Neri ,2.5,Village Road,Black Top,Balck Top & Kaccha,RD 1/500 to 1/570,70,,70,Minor Damage,40,Severely Damaged,30,,,,,,,,,1,Slips ,31.21,76,Self Visit,,
25,Bilaspur,Excessive Rain,08-07-2025,Chharol(Sub-divn. no-3),Kachouli ,Roads, Link Road to Vill. Kachouli,5,Village Road,Black Top,,RD 2/700  to 2/720,20,20,0,,,Totally Damaged,20,,,,,,,,,3.5,B/WALL& slips ,31.27,76,Recieved from Others,Work Inspector ,9882489922
26,Bilaspur,Excessive Rain,18-07-2025,Chharol(Sub-divn. no-3),Chharol ,Roads, National Highway on Chandigarh Mandi Manali Road,11,Major District Road,Black Top,,RD 106/100 to 106/120,20,,0,,,,,,,,,,,,,0.3,Slips ,31.24,76.77,Self Visit,,
27,Bilaspur,Excessive Rain,16-07-2025,Store (dholra)(Sub-divn. no-3),Kallar ,Roads, National Highway on Chandigarh Mandi Manali Road,5,Major District Road,Black Top,,RD 116/00 to 121/00,200,,200,,,,,,,,,,,,,1.3,Pach Work ,31.282,76.742,Self Visit,,
28,Bilaspur,Excessive Rain,09-07-2025,Store (dholra)(Sub-divn. no-3),kallar ,Roads, National Highway on Chandigarh Mandi Manali Road,5,Major District Road,Black Top,,RD 116/325 to 116/340,15,15,0,Severely Damaged,15,,,,,,,,,,,2,,31.28,76.747,Self Visit,,
29,Bilaspur,Excessive Rain,14-07-2025,Kothipura(Sub-divn. no-3),Kothipura,Roads,L/R Nai Sarli to H/Basti Nai Sarli,2.6,Village Road,Black Top,,1/100 to 1/140,40,40,0,Totally Damaged,40,,,,,,,,,,,5.5,Rwall ,31.29211289,74,Self Visit,,
30,Bilaspur,Excessive Rain,14-07-2025,Kothipura(Sub-divn. no-3),Kothipura,Roads,NH-21 to Mehrog Road,1.18,Village Road,Black Top,,0/690 to 0/710,20,20,0,,,,,,,,,,,,,3.5,Road Settled. C/O Paver Block ,31.28031054,76.76349801,Self Visit,,
31,Bilaspur,Excessive Rain,05-07-2025,Kothipura(Sub-divn. no-3),Kachouli,Roads,Rajpura Chila Charan Mod Road,5.21,Village Road,Black Top,,0/885 to 0/905,20,20,0,Totally Damaged,20,,,,,,,,,,,4.5,Rwall ,31.27009836,76.78863339,Self Visit,,
32,Bilaspur,Excessive Rain,17-07-2025,Berthin(Berthin),Bargaon,Roads,Badgaon Reeradoh road,4,Village Road,Earthen Road,,3/500 to 3/650,150,100,50,Totally Damaged,5,Severely Damaged,20,Minor Damage,1,,,,,,,5,,31.391537,76.636069,Self Visit,,
33,Bilaspur,Excessive Rain,16-07-2025,Berthin(Berthin),Ser,Roads,Sunhani Kajail Ser ,4.1,Village Road,Black Top,,3/700 to 3/705,5,5,0,,,Severely Damaged,5,,,,,,,Severely Damaged,5,3,Requires Retaining wall,31.385783,76.665893,Self Visit,,
34,Bilaspur,Landslide,29-06-2025,Hatwar(Bharari),Bum,Roads,Bum Jahu road ,3.765,Village Road,Black Top,,1/680,,30,0,,,,,,,,,,,,,5,,31.574656,76.705684,Self Visit,,
35,Bilaspur,Landslide,22-07-2025,Chharol(Sub-divn. no-3),Chharol,Roads,Link road NH 21 Jamli to Neri,2.15,Village Road,Black Top,,0/045 to 0/075,30,30,0,,,,,,,,,,,Severely Damaged,30,2,"Road Crust, Slips & pots hole",31.22553002,76.77943718,Self Visit,,
36,Bilaspur,Excessive Rain,22-07-2025,Kothipura(Sub-divn. no-3),Rajpura,Roads,Kothipura  Prohi to Deoth road,8.78,Village Road,Black Top,,4/470 to 4/485,15,15,0,Totally Damaged,15,,,,,,,,,,,3.5,R/walll ,31.26317383,76.80078566,Self Visit,,
37,Bilaspur,Excessive Rain,21-07-2025,Kothipura(Sub-divn. no-3),Kachouli ,Roads,Rajpura to Chilla Charanmore Road,5.21,Village Road,Black Top,,0/00 to 0/860,200,,200,,,,,,,,,,,,,1.5,Minor Slips & Road Crust ,31.26934757,76.78990423,Self Visit,,
38,Bilaspur,Excessive Rain,05-07-2025,N.b.t. (changer)(Sub-divn. no-2 bilaspur.),MC Bilaspur,Roads,VIP Road Veterinary Hospital  to Petrol Pump,1.8,Village Road,Black Top,,0/465 to 0/475,,70,,Minor Damage,15,Minor Damage,,,,,,,,,,1.55,,31.33415,76.763486,Self Visit,,
39,Bilaspur,Excessive Rain,19-07-2025,Bandla(Sub-divn. no-2 bilaspur.),Bandla,Roads,Binayakghat Bandla Sihra Bilaspur road,23,Major District Road,Black Top,,13/885 to 13/895,10,10,,Minor Damage,10,,,,,,,,,,,1.6,,31.354267,76.791971,Self Visit,,
40,Bilaspur,Excessive Rain,21-07-2025,Kothipura(Sub-divn. no-3),Rajpura ,Roads,Kothipura to Deoth road ,8.78,Village Road,Black Top,,0/00 to 1/00,300,,300,,,,,,,,,,,,,2.5,Road Crust &Slips ,31.28422352,76.77133141,Self Visit,,
41,Bilaspur,Excessive Rain,21-07-2025,Chharol(Sub-divn. no-3),Chharol ,Roads,National Highway No.205,11,Major District Road,Black Top,,107/015 to 107/030,15,,15,,,Minor Damage,15,,,,,,,,,0.5,Road Crust &Slips ,31.26,76.76,Self Visit,,
42,Bilaspur,Excessive Rain,21-07-2025,Chharol(Sub-divn. no-3),Chharol ,Roads,Link road NH 21 Jamli to Neri ,2.15,Village Road,Black Top,,0/440 to 0/465,25,25,0,,,,,,,,,,,,,0.5,Road Crust &Road Slips ,31.22496423,76.77996206,Self Visit,,
43,Bilaspur,Excessive Rain,21-07-2025,Chharol(Sub-divn. no-3),Kachouli,Roads, Link Road to Vill. Kachouli,5,Village Road,Black Top,,2/410 to 2/435,25,,25,,,Severely Damaged,25,,,,,,,,,4.5,"Bwall ,Road Crust & Slips ",31.26,76.76,Self Visit,,
44,Bilaspur,Excessive Rain,21-07-2025,Deoth(Sub-divn. no-3),Deoth,Roads,Brahmpukhar Deoth Shelli Road ,11.48,Village Road,Black Top,,4/300 to 4/360,60,20,0,,,,,,,,,,,,,0.7,Road Crust &Slips ,31.25228503,76.8129068,Self Visit,,
45,Bilaspur,Excessive Rain,21-07-2025,Deoth(Sub-divn. no-3),Deoth ,Roads,Boh to Hambar ,1.5,Village Road,Earthen Road,,0/060 to 090,30,30,0,,,,,,,,,,,,,0.4,Slips ,31.25189979,79.67680115,Self Visit,,
46,Bilaspur,Excessive Rain,21-07-2025,Store (dholra)(Sub-divn. no-3),,Roads,National Highway No.205,5,Major District Road,Black Top,,116/885 TO 117/225,300,,300,,,,,,,,,,,,,2,Road Crust & Slips ,31.28139784,75,Self Visit,,
47,Bilaspur,Excessive Rain,22-07-2025,Kothipura(Sub-divn. no-3),KACHOULI ,Roads,Rajpura to Chilla Charanmore Road ,5.21,Village Road,Black Top,,0/720 TO 0/740,20,20,0,,,,,,,,,,,,,0.5,Road Crust & Slips ,31.26913879,76.78890488,Self Visit,,
48,Bilaspur,Landslide,22-07-2025,Deoth(Sub-divn. no-3),Deoth,Roads,Brahmpukhar Deoth Shelli Road,11.48,Village Road,Black Top,,4/300 to ,70,70,0,,,,,,,,,,,,,2.5,Road Crust &Slips ,31.25222973,76.81301649,Self Visit,,
49,Bilaspur,Landslide,22-07-2025,Kalol(Kalol),Kalol,Roads,BJSM ROAD,20,Village Road,Black Top,,8/320,,100,0,,,,,,,,,,,Totally Damaged,100,2.5,,31.341066,76.665997,Self Visit,,
50,Bilaspur,Excessive Rain,22-07-2025,Store (dholra)(Sub-divn. no-3),Balh Bhulwana,Roads,NA,0,Village Road,Black Top,,NA,,,0,,,,,,,,,,,,,0,,0,0,Self Visit,,
51,Bilaspur,Landslide,22-07-2025,Kalol(Kalol),Bharolikallan,Roads,Bharolikallan to bagrukhurd,3.5,Village Road,Water Bound Macadem,,0/350,40,20,40,,,,,,,,,,,Severely Damaged,60,0.5,,31.3818,76.573255,Self Visit,,
52,Bilaspur,Excessive Rain,21-07-2025,Kalol(Kalol),Bharolikallan,Roads,Bharolikallan to bharolikhurd,3,Village Road,Black Top,,2/450,400,400,0,,,,,,,,,,,Totally Damaged,400,8,,31.374197,76.580455,Self Visit,,
53,Bilaspur,Landslide,21-07-2025,Kalol(Kalol),Salwad,Roads,Marotan to dhani,8,Village Road,Black Top,,2/930,50,50,0,,,Severely Damaged,15,Minor Damage,1,,,,,Totally Damaged,30,1.5,,31.285057,76.656752,Self Visit,,
54,Bilaspur,Landslide,22-07-2025,Kalol(Kalol),Dhani,Roads,Marotan to dhani,8,Village Road,Black Top,,5/120,40,40,0,,,Severely Damaged,20,,,,,,,Totally Damaged,40,2.5,,31.280217,76.651305,Self Visit,,
55,Bilaspur,Landslide,22-07-2025,Kalol(Kalol),Paploa,Roads,Buhad to malhot,5.79,Village Road,Black Top,,1.520,60,60,0,,,,,,,,,,,Totally Damaged,200,3.5,,31.304527,76.639589,Self Visit,,
56,Bilaspur,Landslide,06-07-2025,Bharari-i(Bharari),BAROTA,Roads,SUSNAL BALDA BHAGYUNDA ROAD ,4.545,Village Road,Black Top,,"1/180 TO 1/190,1/270 TO 1/285,1/030 TO 1/050,0/110 TO 0/200",,135,0,,,,,,,,,,,Minor Damage,135,10,,31.5421,76.634384,Self Visit,,
57,Bilaspur,Landslide,23-07-2025,Chharol(Sub-divn. no-3),Chharol,Roads,Deoth Lagghat Jamli Road,5,Village Road,Black Top,,10/200 to 10/230,30,30,0,,,,,,,,,,,,,2.5,"Road Crust ,Pot holes & Road Slips   ",31.23097136,76.78367187,Self Visit,,
58,Bilaspur,Landslide,23-07-2025,Chharol(Sub-divn. no-3),Chharol,Roads,National Highway No.205,11,Village Road,Black Top,,111/255 to 111/270,15,15,0,,,,,,,,,,,Minor Damage,15,1,Road Crust &slips ,31.24,76.77,Self Visit,,
59,Bilaspur,Landslide,23-07-2025,Kothipura(Sub-divn. no-3),KACHOULI ,Roads,Rajpura to Chilla Charanmore Road,5.21,Village Road,Black Top,,4/240 to 4/260,20,20,0,Additional R/Wall Required,20,,,,,,,,,Totally Damaged,20,6,"Road Crust ,R/wall  Crash barrier required & Slips ",31.25,75,Self Visit,,
60,Bilaspur,Landslide,20-07-2025,Berthin(Berthin),Nihan,Roads,Sunhani Kajail Ser ,4.1,Village Road,Black Top,,0/000 to 0/0.020,20,20,0,,,,,Minor Damage,1,,,,,Totally Damaged,15,7,Requires Retaining wall,31.409698,76.673614,Self Visit,,
61,Bilaspur,Landslide,23-07-2025,Deoth(Sub-divn. no-3),Deoth ,Roads,Deoth Lagghat Jamli Road ,8,Village Road,Black Top,,2/630 to 2/645,15,15,0,Severely Damaged,15,,,,,,,,,,,3.5,Road Crust & R/wall ,31.24141856,76.80645007,Self Visit,,
62,Bilaspur,Landslide,23-07-2025,Deoth(Sub-divn. no-3),DEOTH ,Roads,Brahmpukhar Deoth Shelli Road,11.48,Village Road,Black Top,,3/850 TO 3/880,30,30,0,,,,,,,,,,,,,0.5,Road Crust & Slips ,31.25256363,76.81666236,Self Visit,,
63,Bilaspur,Landslide,04-07-2025,Bharari-i(Bharari),ghandalwin,Roads,Rohal khad to Ghandalwin via Lehri Sarail road ,12.795,Village Road,Black Top,,10/200 to 10/205,,5,0,,,,,,,,,,,Minor Damage,5,2.5,VALLEY SIDE LANDSLIDE NEED R/WALL,31.57121,75,Self Visit,,
64,Bilaspur,Excessive Rain,26-07-2025,Store (dholra)(Sub-divn. no-3),KALLAR,Roads,National Highway No.205 ,5,Major District Road,Black Top,,116/00 to 121/00,1500,,1500,,,,,,,,,,,,,0.25,Road Cust ,31.2810073,76.73947587,Self Visit,,
65,Bilaspur,Landslide,22-07-2025,Talai(Berthin),,Roads,Badgaon to Kosrian road,4.75,Village Road,Black Top,,1/640 to 1/660,20,20,0,,,,,Minor Damage,2,Minor Damaged,1,,,Severely Damaged,10,0.5,,31.524623,76.431181,Self Visit,,
66,Bilaspur,Excessive Rain,17-07-2025,Talai(Berthin),,Roads,Talai Deotsidh road,2.615,Village Road,Black Top,,2/020 to 2/035,15,15,0,Totally Damaged,15,,,Minor Damage,1,Minor Damaged,1,,,Severely Damaged,15,6,,31.453248,76.536152,Self Visit,,
67,Bilaspur,Excessive Rain,17-07-2025,Talai(Berthin),,Roads,Bhagatpur to Khameda,1,Village Road,Black Top,,0/000 to 1/000,30,20,100,,,,,Minor Damage,1,Minor Damaged,1,,,,,1.5,Require patch works and berm,31.437061,76.5193,Self Visit,,
68,Bilaspur,Excessive Rain,21-07-2025,Talai(Berthin),,Roads,Bukhar to Dhameera Road,4.375,Village Road,Black Top,,1/00to 2/00,200,100,0,,,,,,,,,,,Severely Damaged,50,2,,31.45825,76.488299,Self Visit,,
69,Bilaspur,Excessive Rain,29-07-2025,Buhad(Kalol),Malraoun ,Roads,Gangloh Malraoun ,22,Village Road,Black Top,,19/210,40,40,0,,,,,,,,,,,Minor Damage,50,0.5,Landslides ,31.321621,76.596257,Self Visit,,
70,Bilaspur,Excessive Rain,22-07-2025,Buhad(Kalol),Gharan,Roads,Jaddu badgaoun gallu,19.05,Village Road,Black Top,,5/285,50,50,0,,,,,,,,,,,Minor Damage,70,0.75,Landslides ,31.401948,76.529445,Self Visit,,
71,Bilaspur,Excessive Rain,22-07-2025,Buhad(Kalol),Malraoun ,Roads,Gangloh malraon,18,Village Road,Black Top,,14/150,15,15,0,Totally Damaged,15,,,,,,,,,Minor Damage,50,3,,31.344604,76.578186,Self Visit,,
72,Bilaspur,Excessive Rain,22-07-2025,Buhad(Kalol),Malraoun ,Roads,Gangloh  Malraoun ,18,Village Road,Black Top,,13/430,15,15,0,Totally Damaged,15,,,,,,,,,Minor Damage,50,3,,31.345945,76.57324,Self Visit,,
73,Bilaspur,Excessive Rain,03-09-2025,Buhad(Kalol),Dhudhiyan ,Roads,Theh  Buhad ,14,Village Road,Black Top,,,20,,,Minor Damage,20,,,,,,,,,Minor Damage,100,5,Landslides ,31.362429,76.57621,Self Visit,,
74,Bilaspur,Landslide,23-07-2025,Kothipura(Sub-divn. no-3),KOTHPURA,Roads,Link road NH-205 to Mehrog  ,1.18,Village Road,Black Top,,0/450 TO 0/480,30,30,0,,,,,,,,,,,,,3.5,"Road Crust ,slips & Required Paver Block  ",29.28163094,74.695,Self Visit,,
75,Bilaspur,Excessive Rain,26-08-2025,Ghandeer(Berthin),,Roads, Kathiun Gajrehra Deotsidh road.,3.765,Village Road,Black Top,,AT VARIOUS RD,60,,60,,,,,,,,,,,,,4,road crust damaged and berms damaged at various RD ,31.421552,76.571363,Self Visit,,
76,Bilaspur,Excessive Rain,26-07-2025,Kothipura(Sub-divn. no-3),KOTHIPURA,Roads,National Highway No.205 ,6,Major District Road,Black Top,,121/00 to 127/00,1300,,1300,,,,,,,,,,,,,0.28,Road crust,31.27926826,76.76141394,Self Visit,,
77,Bilaspur,Excessive Rain,26-07-2025,Chharol(Sub-divn. no-3),CHHAROL,Roads,National Highway No.205 ,11,Major District Road,Black Top,,105/ to 116/00,2000,,2000,,,,,,,,,,,,,0.5,Road crust ,31.226493,76.77674435,Self Visit,,
78,Bilaspur,Landslide,01-09-2025,Kalol(Kalol),Dhani ,Roads,Marotan to Dhani ROAD,8,Village Road,Black Top,,5/910: 5/810: 5/420/: 5/270: 5/090/ : 4/680: 4/510: 4/370:: 4/120:: 4/090:: 3/910:: 2/340::0/720,530,410,120,Totally Damaged,30,Minor Damage,20,,,,,,,Totally Damaged,530,15,,31.282524,76.651934,Self Visit,,
79,Bilaspur,Excessive Rain,02-08-2025,Deoth(Sub-divn. no-3),Methi ,Roads,Deoth Lagghat Jamli Road,13.18,Village Road,Black Top,,RD 6/575 to 6/600,25,25,0,,,Severely Damaged,25,,,,,,,Severely Damaged,25,2.5,"Road Crust ,Slips &B/wall",31.23781332,76.79639994,Self Visit,,
80,Bilaspur,Landslide,02-08-2025,Kalol(Kalol),Malangan,Roads,Link road to village kallar,1.5,Village Road,Black Top,,0/150 to 0/190,40,40,0,,,,,,,,,,,Severely Damaged,150,0.5,,31.374852,76.600224,Self Visit,,
81,Bilaspur,Excessive Rain,01-08-2025,Kalol(Kalol),Salwad,Roads,Salwad to Balh chalog road,5,Village Road,Black Top,,0/00 to 0/300,300,300,0,Minor Damage,8,,,,,,,,,Severely Damaged,300,3,,31.287379,76.666839,Self Visit,,
82,Bilaspur,Excessive Rain,29-07-2025,Kalol(Kalol),Bharolikallan,Roads,BBC ROAD,7,Village Road,Black Top,,23/00 to 24/00,800,800,0,,,,,,,,,,,Severely Damaged,800,1.7,Road side berms damaged bw km 23/00 to 24/00,31.381259,76.572946,Self Visit,,
83,Bilaspur,Excessive Rain,29-07-2025,Kalol(Kalol),Bharolikallan,Roads,BBC ROAD,7,Village Road,Black Top,,22/00 to 23/00,850,850,0,,,,,,,,,,,Severely Damaged,850,2,Road side berms damaged bw km 22/00 to 23/00,31.373898,76.5778,Self Visit,,
84,Bilaspur,Excessive Rain,01-08-2025,Kalol(Kalol),Sanihra,Roads,BBC ROAD,7,Village Road,Black Top,,24/100 to 24/100,60,60,0,Totally Damaged,60,,,,,,,,,Totally Damaged,150,13.5,,31.385405,76.56752,Self Visit,,
85,Bilaspur,Excessive Rain,29-07-2025,Kalol(Kalol),Kalol,Roads,BJSM ROAD,20,Village Road,Black Top,,4/205,280,280,0,,,Minor Damage,20,,,,,,,Severely Damaged,300,4,,31.2104,76.3619,Self Visit,,
86,Bilaspur,Excessive Rain,01-08-2025,Kalol(Kalol),Bharolikallan,Roads,Bharolikallan to bharolikhurd,3,Village Road,Black Top,,0/570 to 0/630,60,60,0,,,,,,,,,,,Totally Damaged,60,3.5,,31.374602,76.579708,Self Visit,,
87,Bilaspur,Excessive Rain,29-07-2025,Kalol(Kalol),Salwad,Roads,Buhad to malhot,5.79,Village Road,Water Bound Macadem,,5/500 to 5/790,290,,290,,,Minor Damage,10,,,,,,,Severely Damaged,290,1.3,Minor slips and road side berms damaged,31.2838,76.655315,Self Visit,,
88,Bilaspur,Landslide,01-08-2025,Kalol(Kalol),Salwad,Roads,Marotan to dhani,8,Village Road,Black Top,,3/610 to 3/700,90,,0,,,,,,,,,,,Totally Damaged,90,1,,31.285154,76.65369,Self Visit,,
89,Bilaspur,Landslide,29-07-2025,Kalol(Kalol),Dhani,Roads,Marotan to dhani,8,Village Road,Black Top,,5/110 to 5/130,20,20,0,,,Severely Damaged,15,,,,,,,Severely Damaged,0,3.5,,31.280474,76.651006,Self Visit,,
90,Bilaspur,Excessive Rain,01-08-2025,Buhad(Kalol),Kosriyan,Roads,Jaddu to Badgaun gallu,19,Village Road,Black Top,,7/830,20,20,0,Totally Damaged,20,,,,,,,,,Minor Damage,150,10,,31.404898,76.519118,Self Visit,,
91,Bilaspur,Excessive Rain,03-09-2025,Buhad(Kalol),Dudiyan,Roads,Theh  Buhad ,14,Village Road,Black Top,,,10,10,0,Minor Damage,10,,,,,,,,,Minor Damage,20,2,Landslides ,31.347807,76.589927,Self Visit,,
92,Bilaspur,Excessive Rain,02-08-2025,Kothipura(Sub-divn. no-3),Rajpura and Kachouli ,Roads,Rajpura to Chilla Charanmore Road ,5.21,Village Road,Black Top,,RD 0/225 to 0/315,90,90,0,,,,,,,,,,,,,1.5,Road Cust &Slips ,31.27210436,76.78808449,Self Visit,,
93,Bilaspur,Excessive Rain,11-08-2025,Buhad(Kalol),Kosherian,Roads,JADDU KOSHERIAN,14.3,Village Road,Black Top,,5/025,10,10,0,,,Totally Damaged,10,,,,,,,Minor Damage,20,2,Landslides ,31.39608,76.530205,Self Visit,,
94,Bilaspur,Landslide,29-07-2025,Kalol(Kalol),Paploa,Roads,Buhad to malhot,5.79,Village Road,Black Top,,1/550 to 1/580,30,30,0,,,,,,,,,,,Totally Damaged,70,3.5,,31.305049,76.639036,Self Visit,,
95,Bilaspur,Landslide,06-08-2025,Kalol(Kalol),Dhani,Roads,Marotan to dhani,8,Village Road,Black Top,,6/520,50,50,0,,,Severely Damaged,10,,,,,,,Severely Damaged,0,1.5,Tree fallen,31.277564,76.644064,Recieved from Others,Raj kumar ,9817467641
96,Bilaspur,Landslide,30-07-2025,Bharari-i(Bharari),Bharari,Roads,MIHARA KHL DALOTE KUHADRE ROAD,4,Village Road,Black Top,,1/710,,70,0,,,,,,,,,,,Minor Damage,70,8,VALLEY SIDE LANDSLIDE NEED R/WALL,31.545771,76.653605,Self Visit,,
97,Bilaspur,Landslide,06-07-2025,Bharari-i(Bharari),TAROUN,Roads,TARGHEL TO LADROUR ROAD,6.825,Village Road,Black Top,,0/055 TO 0/110,,45,0,Severely Damaged,10,,,,,,,,,Minor Damage,55,20,VALLEY SIDE LANDSLIDE NEED R/WALL,31.539816,76.620115,Self Visit,,
98,Bilaspur,Excessive Rain,06-08-2025,Kalol(Kalol),Dhani,Roads,Marotan to dhani,8,Village Road,Black Top,,5/910,10,10,0,,,,,,,,,,,Totally Damaged,40,0.2,Tree fallen,31.278396,76.64642,Recieved from Others,Raj kumar ,9817467641
99,Bilaspur,Landslide,06-07-2025,Bharari-i(Bharari),TAROUN,Roads,TARGHEL TO LADROUR ROAD,6.825,Village Road,Black Top,,0/740 TO 0/780,40,40,0,,,,,,,,,,,Minor Damage,40,3,HILL SIDE LANDSLIDE NEED EDGEWALL,31.539816,76.620115,Self Visit,,
100,Bilaspur,Excessive Rain,06-07-2025,Bharari-i(Bharari),BAROTA,Roads,SUSNAL BALDA BHAGYUNDA ROAD ,4.565,Village Road,Black Top,,1/300 TO 1/545,,245,0,,,,,,,,,,,Minor Damage,40,15,,31.537066,76,Self Visit,,
101,Bilaspur,Landslide,02-08-2025,Kalol(Kalol),Malangan,Roads,Link road to village kallar,1.5,Village Road,Black Top,,0/220 to 0/280,55,55,0,Minor Damage,5,,,,,,,,,Totally Damaged,60,1,,31.375674,76.599184,Self Visit,,
102,Bilaspur,Excessive Rain,06-08-2025,Kalol(Kalol),Dhani,Roads,Marotan to dhani,8,Village Road,Black Top,,3/570,10,10,0,,,,,,,,,,,Severely Damaged,20,0.1,,31.280391,76.661514,Recieved from Others,Raj kumar ,9817467641
103,Bilaspur,Excessive Rain,02-08-2025,Kothipura(Sub-divn. no-3),Kothipura,Roads, Link Road to  HB Naisarli ,2.75,Village Road,Black Top,,RD 0/490 to 0/520,30,30,30,Severely Damaged,30,,,,,,,,,,,5,R/wall & Road CRUST ,31.28871467,76.75667199,Self Visit,,
104,Bilaspur,Excessive Rain,02-08-2025,Deoth(Sub-divn. no-3),Deoth,Roads,Brahmpukhar Deoth Shelli Road ,11.48,Village Road,Black Top,,RD 4/300 to 4/350,50,50,0,,,,,,,,,,,,,0.5,Slips &Road Crust ,31.25213459,76.81294168,Self Visit,,
105,Bilaspur,Excessive Rain,02-08-2025,Store (dholra)(Sub-divn. no-3),Kallar ,Roads,National Highway No.205,5,Major District Road,Black Top,,RD 116/00 to 121/00,800,,800,,,,,,,,,,,,,2,"Road Crust & Slips , Pot hole ",31.28282142,76.74143503,Self Visit,,
106,Bilaspur,Landslide,01-08-2025,Kalol(Kalol),Salwad,Roads,Marotan to dhani,8,Village Road,Black Top,,2/230 to 2/300,70,70,0,,,,,,,,,,,Totally Damaged,70,1,,31.284681,76.653837,Self Visit,,
107,Bilaspur,Landslide,01-08-2025,Kalol(Kalol),Paploa,Roads,Buhad to malhot,5.79,Village Road,Black Top,,2/380 to 2/400,20,20,0,,,,,,,,,,,Totally Damaged,300,1.5,,31.298603,76.642378,Self Visit,,
108,Bilaspur,Excessive Rain,02-08-2025,Deoth(Sub-divn. no-3),Methi ,Roads,Link road Maithi to Saikali ,4.24,Village Road,Black Top,,RD 2/570 to 2/600,30,30,0,,,,,,,,,,,,,0.3,Road Crust &Slips ,31.23608063,7.68031E+15,Self Visit,,
109,Bilaspur,Landslide,06-08-2025,Kalol(Kalol),Dhani,Roads,Marotan to dhani,8,Village Road,Black Top,,5/120,40,40,0,,,Severely Damaged,10,,,,,,,Totally Damaged,100,2.5,,31.280514,76.651041,Recieved from Others,Raj kumar ,9817467641
110,Bilaspur,Landslide,03-08-2025,Kalol(Kalol),Salwad,Roads,Baghchhal to marotan,4,Village Road,Black Top,,0/400 to 0/460,60,60,0,,,Minor Damage,5,,,,,,,Severely Damaged,150,1,,31.263161,76.68328,Self Visit,,
111,Bilaspur,Landslide,03-08-2025,Kalol(Kalol),Salwad,Roads,Marotan to dhani,8,Village Road,Black Top,,2/920 to 2/950,30,30,0,,,Severely Damaged,15,,,,,,,Severely Damaged,50,1,,31.337795,76.69162,Self Visit,,
112,Bilaspur,Landslide,04-08-2025,Kalol(Kalol),Malangan,Roads,Link road to village kallar,1.5,Village Road,Black Top,,0/010 to 0/040,30,30,0,,,Severely Damaged,5,,,,,,,Severely Damaged,40,1,,31.374033,76.600967,Self Visit,,
113,Bilaspur,Excessive Rain,04-08-2025,Chharol(Sub-divn. no-3),Chharol ,Roads,National Highway No.205,11,Major District Road,Black Top,,112/095 to  112/470,25,25,0,Severely Damaged,25,,,,,,,,,,,5,Metal Crash Barrier,31.25,76.77,Self Visit,,
114,Bilaspur,Excessive Rain,04-08-2025,Chharol(Sub-divn. no-3),Chharol,Roads,National Highway No.205,11,Major District Road,Black Top,,112/390 to 112/400,10,10,0,Severely Damaged,10,,,,,,,,,,,1.5,R/wall ,31.26,76.75,Self Visit,,
115,Bilaspur,Excessive Rain,04-08-2025,Chharol(Sub-divn. no-3),Chharol ,Roads,National Highway No.205 ,11,Major District Road,Black Top,,107/730 to 107/755,25,25,0,,,,,,,,,,,,,1.5,RequiredMetal Crash Barrier ,31.25,76.77,Self Visit,,
116,Bilaspur,Excessive Rain,07-08-2025,Buhad(Kalol),Jaddu Kulzair,Roads,Jaddu Kosherian,14.3,Village Road,Black Top,,5/240,20,20,0,,,,,,,,,,,Minor Damage,50,0.5,Land slides,31.40147,76.528932,Self Visit,,
117,Bilaspur,Landslide,06-08-2025,Kalol(Kalol),Dhani,Roads,Marotan to dhani,8,Village Road,Black Top,,5/640,100,100,0,,,,,,,,,,,Totally Damaged,100,0.5,,31.278225,76.6471,Recieved from Others,Raj kumar ,9817467641
118,Bilaspur,Landslide,06-08-2025,Kalol(Kalol),Dhani,Roads,Marotan to dhani,8,Village Road,Black Top,,5/220,100,100,0,,,,,,,,,,,Totally Damaged,100,0.5,,31.279527,76.65045,Recieved from Others,Raj kumar ,9817467641
119,Bilaspur,Landslide,05-08-2025,Deoth(Sub-divn. no-3),Deoth,Roads,Brahmpukhar Deoth Shelli Road ,11.48,Village Road,Black Top,,4/300 to 4/350,50,50,0,,,,,,,,,,,,,0.5,Slips  ,31.25,76.81,Self Visit,,
120,Bilaspur,Excessive Rain,05-08-2025,Deoth(Sub-divn. no-3),Deoth,Roads,Brahmpukhar Deoth Shelli Road,11.48,Village Road,Black Top,,11/090 to 11/120,30,30,0,,,,,,,,,,,,,0.3,Slips & Crust ,31.22,76.83,Self Visit,,
121,Bilaspur,Landslide,05-08-2025,Deoth(Sub-divn. no-3),Deoth ,Roads,Deoth Lagghat Jamli Road ,113.18,Village Road,Black Top,,2/380 to 2/400,20,20,0,,,,,,,,,,,,,0.2,Slips,31.24,75,Self Visit,,
122,Bilaspur,Excessive Rain,05-08-2025,Deoth(Sub-divn. no-3),Deoth ,Roads, Deoth to  Dabbar  Road ,10.96,Village Road,Black Top,,0/0 to 8/00,200,,200,,,,,,,,,,,,,1.5,Slips & Crust ,31.24,76.83,Self Visit,,
123,Bilaspur,Excessive Rain,05-08-2025,Deoth(Sub-divn. no-3),Meathi ,Roads,Link road Maithi to Saikali ,4.24,Village Road,Black Top,,2/590 to 2/600,10,,10,,,,,,,,,,,,,0.2,Road Crust &slips ,31.23,76.8,Self Visit,,
124,Bilaspur,Landslide,05-08-2025,Kothipura(Sub-divn. no-3),KACHOULI,Roads,Rajpura to Chilla Charanmore Road,5.21,Village Road,Black Top,,1/620 to 1/635,15,15,0,,,,,,,,,,,,,0.5,Road Slips & Crust ,31.26,76.78,Self Visit,,
125,Bilaspur,Landslide,06-08-2025,Kalol(Kalol),Dhani,Roads,Marotan to dhani,8,Village Road,Black Top,,3/700 to 3/730,30,30,0,,,,,,,,,,,Totally Damaged,0,0.5,,31.284888,76.653016,Recieved from Others,Raj kumar ,9817467641
126,Bilaspur,Landslide,06-08-2025,Kalol(Kalol),Salwad,Roads,Marotan to dhani,8,Village Road,Black Top,,2/910 to 2/940,30,30,0,,,Severely Damaged,15,,,,,,,Totally Damaged,40,3.5,,31.285515,76.656765,Recieved from Others,Raj kumar ,9817467641
127,Bilaspur,Landslide,02-08-2025,Berthin(Berthin),Nihan,Roads,Baroha Sunhani Road,7,Village Road,Black Top,,6/300,250,250,0,Minor Damage,100,Minor Damage,80,Minor Damage,1,,,,,Totally Damaged,5,0.5,,31.409395,76.672927,Self Visit,,
128,Bilaspur,Excessive Rain,06-08-2025,Kalol(Kalol),Salwad,Roads,Baghchhal to marotan,4,Village Road,Black Top,,1/180 to 1/205,25,,25,Totally Damaged,25,,,,,,,,,Minor Damage,50,6.5,,31.266493,76.682949,Recieved from Others,Raj kumar ,9817467641
129,Bilaspur,Landslide,06-08-2025,Kothipura(Sub-divn. no-3),Rajpura,Roads,Rajpura to Chilla Charanmore Road ,5.21,Village Road,Black Top,,0/605 to 0/695,90,,90,,,Severely Damaged,90,,,,,,,,,3.5,"Road crust ,slips & B/WALL ",31.271,767.874,Self Visit,,
130,Bilaspur,Landslide,06-08-2025,Kothipura(Sub-divn. no-3),KOTHIPURA,Roads,Link road NH-205 to Mehrog,1.18,Village Road,Black Top,,0/270 TO 0/380,110,,110,,,Severely Damaged,110,,,,,,,,,2.5,"Road Crust ,slips & Proposed B/wall ",31.28,76,Self Visit,,
131,Bilaspur,Excessive Rain,06-08-2025,Kothipura(Sub-divn. no-3),RAJPURA ,Roads,Kothipura to Deoth road,8.78,Village Road,Black Top,,7/195 TO 7/625,400,400,0,,,,,,,,,,,,,1,Road Slips &Crust ,31.254,76.805,Self Visit,,
132,Bilaspur,Excessive Rain,06-08-2025,Chharol(Sub-divn. no-3),Meathi ,Roads,Deoth Lagghat Jamli Road ,13.18,Village Road,Black Top,,9/870 to 9/900,30,30,0,,,,,,,,,,,,,0.8,Road Crust &Slips ,31.23,76.792,Self Visit,,
133,Bilaspur,Landslide,06-08-2025,Deoth(Sub-divn. no-3),Deoth ,Roads,Brahmpukhar Deoth Shelli Road,11.48,Village Road,Black Top,,4/300 to 4/360,60,,60,,,,,,,,,,,,,0.4,Road Slips & Road Crust ,31.252,76.812,Self Visit,,
134,Bilaspur,Landslide,06-08-2025,Kalol(Kalol),Paploa,Roads,Buhad to malhot,5.79,Village Road,Black Top,,3/300 to 3/330,30,30,0,,,,,,,,,,,Severely Damaged,150,1,,31.294308,76.644993,Recieved from Others,Raj kumar ,9817467641
135,Bilaspur,Excessive Rain,06-08-2025,Deoth(Sub-divn. no-3),Deoth ,Roads,Brahmpukhar Deoth Shelli Road ,11.3,Village Road,Black Top,,2/135 to 2/180,55,,55,,,,,,,,,,,,,0.2,Slips ,31.25317416,76.82108736,Self Visit,,
136,Bilaspur,Excessive Rain,06-08-2025,Deoth(Sub-divn. no-3),Deoth Meathi ,Roads,Deoth Lagghat Jamli Road,13.18,Village Road,Black Top,,2/350 to 2/370,20,,20,,,,,,,,,,,,,0.2,Slips,31.23955771,76.79640797,Self Visit,,
137,Bilaspur,Excessive Rain,06-08-2025,Deoth(Sub-divn. no-3),Deoth ,Roads,Link road Maithi to Saikali ,4.24,Village Road,Black Top,,2/630 to 2/650,20,20,0,Minor Damage,20,,,,,,,,,,,3.5,R/wall,31.23592224,76.80307358,Self Visit,,
138,Bilaspur,Excessive Rain,06-08-2025,Deoth(Sub-divn. no-3),Deoth ,Roads, Deoth to  Dabbar  Road ,10.96,Village Road,Black Top,,5/650 to 5/670,20,20,0,,,,,,,,,,,,,0.1,Slips,31.24794128,76.82416796,Self Visit,,
139,Bilaspur,Landslide,07-08-2025,Kalol(Kalol),Dhani,Roads,Marotan to dhani,8,Village Road,Black Top,,5/220 to 5/260,40,40,0,,,,,,,,,,,Totally Damaged,100,1,,31.279552,76.650827,Recieved from Others,Raj kumar ,9817467641
140,Bilaspur,Landslide,07-08-2025,Kalol(Kalol),Paploa,Roads,Buhad to malhot,5.79,Village Road,Black Top,,2/330,90,90,0,,,,,,,,,,,Totally Damaged,90,1,,31.299154,76.641812,Recieved from Others,Raj kumar ,9817467641
141,Bilaspur,Landslide,07-08-2025,Kalol(Kalol),Salwad,Roads,Marotan to Baghchhal,4,Village Road,Black Top,,0/375,60,60,0,,,,,,,,,,,Severely Damaged,120,1,,31.263182,76.683373,Recieved from Others,Raj kumar ,9817467641
142,Bilaspur,Excessive Rain,07-08-2025,Kalol(Kalol),Salwad,Roads,Marotan to Baghchhal,4,Village Road,Black Top,,1/585 to 1/595,10,10,0,Totally Damaged,10,,,,,,,,,Minor Damage,30,3.5,Undercut,31.269304,76.682174,Recieved from Others,Raj kumar ,9817467641
143,Bilaspur,Landslide,06-08-2025,Kalol(Kalol),Salwad,Roads,Buhad to malhot,5.79,Village Road,Black Top,,4/120 to 4/160,40,40,0,,,,,,,,,,,Severely Damaged,150,2.5,,31.289395,76.650483,Recieved from Others,Raj kumar ,9817467641
144,Bilaspur,Landslide,06-08-2025,Kalol(Kalol),Paploa,Roads,Buhad to malhot,5.79,Village Road,Black Top,,2/930 to 2/960,30,30,0,,,Severely Damaged,15,,,,,,,Totally Damaged,100,2.5,,31.295384,76.641546,Recieved from Others,Raj kumar ,9817467641
145,Bilaspur,Excessive Rain,06-08-2025,Kalol(Kalol),Malangan,Roads,Link road to village kallar,1.5,Village Road,Black Top,,0/260,10,20,0,Minor Damage,10,,,,,,,,,Minor Damage,40,2,Road settlement,31.375443,76.599339,Recieved from Others,Surm singh,9805701639
146,Bilaspur,Landslide,14-08-2025,Kalol(Kalol),Salwad,Roads,Marotan to Dhani ,8,Village Road,Black Top,,0/040 to 0/150,110,110,0,,,Totally Damaged,40,,,,,,,Totally Damaged,110,4,,31.28259,76.671826,Self Visit,,
147,Bilaspur,Landslide,06-08-2025,Kalol(Kalol),Malangan,Roads,Link road to village kallar,1.5,Village Road,Black Top,,0/470 to 0/510,40,40,0,,,Severely Damaged,15,,,,,,,Severely Damaged,80,2.5,,31.37574,76.599339,Recieved from Others,Surm singh,9805701639
148,Bilaspur,Landslide,06-08-2025,Kalol(Kalol),Malangan,Roads,Link road to village kallar,1.5,Village Road,Black Top,,0/010 to 0/040,30,30,0,,,Severely Damaged,15,,,,,,,Severely Damaged,60,3.5,,31.373987,76.600973,Recieved from Others,Surm singh,9805701639
149,Bilaspur,Landslide,06-08-2025,Kalol(Kalol),Malangan,Roads,BBC ROAD,7,Village Road,Black Top,,19/050 to 19/160,,110,0,,,Severely Damaged,20,,,,,,,Severely Damaged,110,1.5,,31.373258,76.60156,Recieved from Others,Surm singh,9805701639
150,Bilaspur,Excessive Rain,06-08-2025,Buhad(Kalol),Dhudhiyan,Roads,Dholak chaknar gah,5,Village Road,Black Top,,0/525,,20,0,,,Totally Damaged,20,,,,,,,Minor Damage,20,2,Land slide,31.318719,76.613502,Self Visit,,
151,Bilaspur,Excessive Rain,29-08-2025,Buhad(Kalol),Paploa,Roads,Chounta Dhani Pukhar,27,Village Road,Black Top,,24/75,,40,0,,,,,,,,,,,Minor Damage,40,0.5,Landslides ,31.286452,76.623478,Self Visit,,
152,Bilaspur,Excessive Rain,06-08-2025,Buhad(Kalol),Jaddu kulzair,Roads,Gangloh Malraoun ,18,Village Road,Black Top,,9/400,,40,0,,,,,,,,,,,Minor Damage,40,0.5,Land slide,31.360292,76.56306,Self Visit,,
153,Bilaspur,Excessive Rain,11-08-2025,Kothipura(Sub-divn. no-3),KOTHIPURA,Roads,Kothipura Parohi Deoth Road ,8.785,Village Road,Black Top,,5/450 to 5/490,40,,40,,,Severely Damaged,40,,,,,,,,,2.5,Damages ,31.258,76.799,Self Visit,,
154,Bilaspur,Excessive Rain,06-08-2025,Buhad(Kalol),Paploa,Roads,CHOUNTA DHANI,27,Village Road,Black Top,,26/095,,50,0,,,,,,,,,,,Minor Damage,50,0.5,Land slide,31.278453,76.626759,Self Visit,,
155,Bilaspur,Excessive Rain,03-09-2025,Buhad(Kalol),Dhudhiyan ,Roads,Theh  Buhad ,14,Village Road,Black Top,,6/510,20,,0,Minor Damage,20,,,Severely Damaged,3,,,,,Minor Damage,150,15,Landslides ,31.347761,76.589837,Self Visit,,
156,Bilaspur,Landslide,14-08-2025,Kalol(Kalol),Salwad,Roads,Marotan to Dhani ,8,Village Road,Black Top,,0/300,,50,0,,,,,,,,,,,Totally Damaged,100,1,,31.282711,76.67113,Self Visit,,
157,Bilaspur,Excessive Rain,06-08-2025,Buhad(Kalol),Paploa,Roads,CHOUNTA DHANI,27,Village Road,Black Top,,24/120,,50,0,,,,,,,,,,,Minor Damage,50,0.5,Land slide,31.286329,76.624555,Self Visit,,
158,Bilaspur,Excessive Rain,06-08-2025,Buhad(Kalol),Paploa,Roads,Chounta Dhani,27,Village Road,Black Top,,22/660,,25,0,,,,,,,,,,,Minor Damage,25,0.25,Land slide,31.296026,76.622268,Self Visit,,
159,Bilaspur,Landslide,21-08-2025,Kalol(Kalol),Dhani,Roads,Marotan to dhani,8,Village Road,Black Top,,5/740 to 5/770,,30,0,,,,,,,,,,,Totally Damaged,100,0.5,,31.278668,76.647446,Self Visit,,
160,Bilaspur,Landslide,14-08-2025,Kalol(Kalol),Salwad,Roads,Marotan to Dhani ,8,Village Road,Black Top,,0/360 to 0/390,,30,0,,,,,,,,,,,Totally Damaged,0,1,,31.282948,76.670855,Self Visit,,
161,Bilaspur,Landslide,03-08-2025,Kalol(Kalol),Paploa,Roads,Buhad to malhot,5.79,Village Road,Black Top,,1/095 to 1/135,40,,0,,,Totally Damaged,40,,,,,,,Totally Damaged,0,4.5,,31.306819,76.636121,Self Visit,,
162,Bilaspur,Excessive Rain,20-08-2025,Chharol(Sub-divn. no-3),chharol,Roads,National Highway Old NH 205 Chandigarh Mandi Manali Road Manali Road,11,Major District Road,Black Top,,112/560 to 112/600 ,40,40,0,Totally Damaged,40,,,,,,,,,,,10,damage Road,31.255,76.769,Self Visit,,
163,Bilaspur,Excessive Rain,29-07-2025,Buhad(Kalol),Jaddu,Roads,Jadu badgaun gallu ,19,Village Road,Water Bound Macadem,,2/705,,60,0,,,,,,,,,,,Severely Damaged,50,0.5,,31.391165,76.533806,Self Visit,,
164,Bilaspur,Landslide,21-08-2025,Kalol(Kalol),Dhani,Roads,Marotan to dhani,8,Village Road,Black Top,,5/210 to 5/250,40,,0,,,Minor Damage,40,,,,,,,Totally Damaged,100,4.5,,31.29166,76.636759,Self Visit,,
165,Bilaspur,Excessive Rain,13-08-2025,N.b.t. (changer)(Sub-divn. no-2 bilaspur.),MC Lakhanpur,Roads,Chandigarh Mandi Manali road Km. 127/00 to 156/750.,29.75,Major District Road,Earthen Road,,131/00 to 131/300,,,300,,,,,,,,,,,Minor Damage,,0.95,,31.325454,74,Self Visit,,
166,Bilaspur,Excessive Rain,07-08-2025,Dholra(Sub-divn. no-2 bilaspur.), BALNA BRAMNA,Roads,lINK ROAD TO VILLAGE LUHNOO ,1.15,Village Road,Black Top,,0/255 TO 0/265,10,10,,Minor Damage,10,,,,,,,,,,,0.5,,31.379761,76.737658,Self Visit,,
167,Bilaspur,Excessive Rain,13-08-2025,Bandla(Sub-divn. no-2 bilaspur.),Bandla,Roads,Binayakghat Bandla Sihra Bilaspur Road Km 0/0 to 23/00,23,Major District Road,Black Top,,10/710 to 10/720,10,10,,Minor Damage,10,,,,,,,,,,,2.5,,31.336339,76.790428,Self Visit,,
168,Bilaspur,Excessive Rain,11-08-2025,Bandla(Sub-divn. no-2 bilaspur.),Oel,Roads,Binayakghat Bandla Sihra Bilaspur road KM. 0/00 to 23/00,23,Major District Road,Earthen Road,,22/300 to 22/800,,,500,,,,,,,,,,,Minor Damage,500,1,,31.34679,76.765424,Self Visit,,
169,Bilaspur,Excessive Rain,21-07-2025,Dholra(Sub-divn. no-2 bilaspur.),Balh Bhulwana CHANDPUR BALNA BRAMNA,Roads,Kothi Tarer ,7.2,Village Road,Black Top,,3/630 TO 3/645,15,15,,Minor Damage,15,,,,,,,,,,,2.5,,31.369587,76.729591,Self Visit,,
170,Bilaspur,Excessive Rain,08-08-2025,Berthin(Berthin),,Roads,Sunhani-Doon road,4.51,Village Road,Black Top,,0/980to 1/000,20,20,0,Additional R/Wall Required,20,,,Minor Damage,1,Minor Damaged,1,,,Minor Damage,10,5,Requires Retaining wall,31.414107,76.667384,Self Visit,,
171,Bilaspur,Excessive Rain,06-08-2025,Berthin(Berthin),Sunhani,Roads,GTB MDR116 road ,31,Major District Road,Black Top,,6/800 to 6/810,10,,10,,,,,,,,,,,Severely Damaged,10,6,Requires Retaining wall towards valley side,31.411975,76.67407,Self Visit,,
172,Bilaspur,Excessive Rain,14-08-2025,Buhad(Kalol),Dhudhiyan ,Roads,Theh to Buhad,14.1,Village Road,Black Top,,8435,15,,0,Totally Damaged,15,,,,,,,,,Minor Damage,50,3,Landslides ,31.33737,76.600628,Self Visit,,
173,Bilaspur,Landslide,29-07-2025,Kalol(Kalol),Paploa,Roads,Buhad to malhot,5.79,Village Road,Black Top,,1/250 to 1/260,10,,0,,,Severely Damaged,10,,,,,,,Severely Damaged,50,1.5,,31.306115,76.636774,Self Visit,,
174,Bilaspur,Excessive Rain,29-07-2025,Kalol(Kalol),Paploa,Roads,Buhad to malhot,5.79,Village Road,Black Top,,1/500 to 1/530,,30,0,,,,,,,,,,,Severely Damaged,80,1.5,Land slide at km ,31.304333,76.639736,Self Visit,,
175,Bilaspur,Excessive Rain,29-07-2025,Kalol(Kalol),Salwad,Roads,Baghchhal to marotan,4,Village Road,Black Top,,0/105,,50,0,,,Minor Damage,30,,,,,,,Severely Damaged,100,3.5,Minor landslides from km 0/030 to 0/600,31.1542,76.4101,Self Visit,,
176,Bilaspur,Excessive Rain,21-08-2025,Kalol(Kalol),Salwad,Roads,BJSM ROAD,20,Village Road,Black Top,,15/495 to 15/535,40,,0,Additional R/Wall Required,40,,,,,,,,,Minor Damage,100,15,Retaining wall required,31.299462,76.657694,Self Visit,,
177,Bilaspur,Landslide,24-07-2025,Kalol(Kalol),Dhani,Roads,Marotan to dhani,8,Village Road,Black Top,,5/165,,30,0,,,Totally Damaged,25,,,,,,,Totally Damaged,50,3,,31.279788,76.651105,Recieved from Others,Raj kumar ,9817467641
178,Bilaspur,Landslide,29-08-2025,Kalol(Kalol),Salwad,Roads,Link road to village kutheran,1.5,Village Road,Black Top,,0/495,,30,0,,,Minor Damage,10,,,,,,,Totally Damaged,60,1,,31.295844,76.662378,Self Visit,,
179,Bilaspur,Landslide,21-08-2025,Kalol(Kalol),Salwad,Roads,Buhad to malhot,5.79,Village Road,Black Top,,5/600 to 5/620,,20,0,,,,,,,,,,,Totally Damaged,150,0.5,,31.284371,76.65533,Self Visit,,
180,Bilaspur,Excessive Rain,16-07-2025,Kalol(Kalol),Kalol,Roads,BJSM ROAD,20,Village Road,Black Top,,4/800,,30,0,,,Minor Damage,10,,,,,,,Severely Damaged,250,2,Road side berms damaged km 4/500 to 5/550,31.349485,76.604829,Self Visit,,
181,Bilaspur,Excessive Rain,18-08-2025,Buhad(Kalol),Dhudhiyan ,Roads,Theh  Buhad ,14.1,Village Road,Black Top,,5/210,,30,0,,,,,,,,,,,Minor Damage,30,0.5,Landslides ,31.354738,76.583978,Self Visit,,
182,Bilaspur,Excessive Rain,18-08-2025,Buhad(Kalol),Dhudhiyan ,Roads,Theh  Buhad ,14.1,Village Road,Black Top,,4/035,,15,0,Minor Damage,15,,,,,,,,,Minor Damage,50,,Landslides ,31.361977,76.576763,Self Visit,,
183,Bilaspur,Excessive Rain,21-07-2025,Kalol(Kalol),Bharolikallan,Roads,BBC ROAD,7,Major District Road,Black Top,,19/030,,120,0,,,Minor Damage,60,,,,,,,Totally Damaged,230,,Landslides,31.373158,76.602185,Self Visit,,
184,Bilaspur,Landslide,21-08-2025,Kalol(Kalol),Paploa,Roads,Buhad to malhot,5.79,Village Road,Black Top,,0/450 to 0/470,,20,0,,,,,,,,,,,Totally Damaged,100,0.5,,31.311034,76.631909,Self Visit,,
185,Bilaspur,Excessive Rain,21-07-2025,Kalol(Kalol),Salwad,Roads,Salwad to Balh chalog road,5,Village Road,Black Top,,0/400,,,0,,,,,,,,,,,Severely Damaged,0,5,,31.287038,76.66913,Self Visit,,
186,Bilaspur,Excessive Rain,19-08-2025,Chharol(Sub-divn. no-3),chharol,Roads,National Highway No.205,11,Major District Road,Black Top,,113/150 to 113/165,15,15,0,Severely Damaged,15,,,,,,,,,,,2.5,R/wall ,31.22,76.77,Self Visit,,
187,Bilaspur,Excessive Rain,19-08-2025,Store (dholra)(Sub-divn. no-3),kALLAR ,Roads,National Highway No.205,5,Major District Road,Black Top,,116.390 TO 116.415,25,25,0,Totally Damaged,25,,,,,,,,,,,2.5,Road Damage in R/wall ,31.27,76.74,Self Visit,,
188,Bilaspur,Excessive Rain,19-08-2025,Kothipura(Sub-divn. no-3),KOTHIPURA ,Roads, Link Road to  HB Naisarli ,2.4,Village Road,Black Top,,R/WALL ,40,40,0,Severely Damaged,40,,,,,,,,,,,4.5,R/wall ,31.28,76.75,Self Visit,,
189,Bilaspur,Excessive Rain,14-08-2025,Kalol(Kalol),Bharolikallan,Roads,BBC ROAD,7,Village Road,Black Top,,25/280 to 25/320,40,,0,Totally Damaged,40,,,Totally Damaged,3,,,,,Totally Damaged,150,50,,31.391439,76.561478,Self Visit,,
190,Bilaspur,Excessive Rain,16-08-2025,Dholra(Sub-divn. no-2 bilaspur.), BALNA BRAMNA,Roads,Kothi Tarer ,7.2,Village Road,Black Top,,4/720 TO 4/735,15,15,,Minor Damage,15,,,,,,,,,,,1,,31.377635,76.732687,Self Visit,,
191,Bilaspur,Excessive Rain,16-08-2025,Dholra(Sub-divn. no-2 bilaspur.), BALNA BRAMNA,Roads,lINK ROAD TO VILLAGE LUHNOO kANITAN KM 0/00 TO 1/150.,1.15,Village Road,Black Top,,0/00 TO 0/400,200,,200,Minor Damage,60,Minor Damage,30,,,,,,,Minor Damage,200,0.5,,31.37817,76.73204,Self Visit,,
192,Bilaspur,Landslide,14-08-2025,Kalol(Kalol),Bharolikallan,Roads,BBC ROAD,7,Village Road,Black Top,,25/125,,40,0,,,,,,,,,,,Severely Damaged,80,1,,31.390799,76.561436,Self Visit,,
193,Bilaspur,Landslide,21-08-2025,Kalol(Kalol),Salwad,Roads,Marotan to dhani,8,Village Road,Black Top,,0/160 to 0/180,,20,0,,,,,,,,,,,Totally Damaged,100,0.5,,31.282039,76.672296,Self Visit,,
194,Bilaspur,Landslide,21-08-2025,Kalol(Kalol),Dhani,Roads,Marotan to dhani,8,Village Road,Black Top,,7/640 to 7/680,40,,0,,,Minor Damage,20,,,,,,,Totally Damaged,80,3.5,,31.276099,76.641127,Self Visit,,
195,Bilaspur,Landslide,21-08-2025,Kalol(Kalol),Salwad,Roads,Marotan to dhani,8,Village Road,Black Top,,3/120 to 3/140,,20,0,,,,,,,,,,,Totally Damaged,100,0.5,,31.28383,76.656567,Self Visit,,
196,Bilaspur,Landslide,21-08-2025,Kalol(Kalol),Salwad,Roads,Marotan to dhani,8,Village Road,Black Top,,2/760 to 790,,30,0,,,,,,,,,,,Totally Damaged,120,0.5,,31.278381,76.646655,Self Visit,,
197,Bilaspur,Landslide,21-08-2025,Kalol(Kalol),Salwad,Roads,Marotan to dhani,8,Village Road,Black Top,,1/730 to 1/750,20,,0,,,Totally Damaged,20,,,,,,,Totally Damaged,50,4.5,,31.283934,76.661245,Self Visit,,
198,Bilaspur,Landslide,21-08-2025,Kalol(Kalol),Paploa,Roads,Buhad to malhot,5.79,Village Road,Black Top,,1/410 to 1/430,,20,0,,,,,,,,,,,Totally Damaged,150,1.5,,31.305486,76.638075,Self Visit,,
199,Bilaspur,Excessive Rain,21-08-2025,Kalol(Kalol),Salwad,Roads,BJSM ROAD,20,Village Road,Black Top,,15/420 to 15/440,20,,0,Additional R/Wall Required,20,,,,,,,,,Minor Damage,50,7.5,Retaining wall required,31.29943,76.657678,Self Visit,,
200,Bilaspur,Landslide,14-08-2025,Kalol(Kalol),Salwad,Roads,Marotan to Dhani ,8,Village Road,Black Top,,0/690 to 0/720,30,,0,,,Minor Damage,20,,,,,,,Totally Damaged,150,3,,31.282553,76.667537,Self Visit,,
201,Bilaspur,Excessive Rain,14-08-2025,Kalol(Kalol),Salwad,Roads,Marotan to Dhani ,8,Village Road,Black Top,,0/330 tp 0/3500,20,,0,Totally Damaged,20,,,,,,,,,Minor Damage,50,10,,31.282838,76.671053,Self Visit,,
202,Bilaspur,Excessive Rain,23-08-2025,Chharol(Sub-divn. no-3),CHHAROL,Roads,Link Road Village Kachouli ,5,Village Road,Black Top,,1/315 to 1/330,15,15,0,,,,,,,,,,,,,0.5,Removal of Slips &Road Crust ,31.27161003,76.76018996,Self Visit,,
203,Bilaspur,Excessive Rain,27-08-2025,Buhad(Kalol),Paploa,Roads,Chounta,27,Village Road,Black Top,,24/175,,10,0,,,,,,,,,,,Minor Damage,20,1,Landslides ,31.286346,76.624469,Self Visit,,
204,Bilaspur,Landslide,23-08-2025,Berthin(Berthin),,Roads,Ballu Balghar road,7.6,Village Road,Black Top,,6/705 to 6/720,15,10,5,Additional R/Wall Required,10,,,,,,,,,Minor Damage,15,15,Requires Retaining wall/bwall,31.378288,76.62087,Self Visit,,
205,Bilaspur,Excessive Rain,23-08-2025,Buhad(Kalol),Dhudhiyan ,Roads,Theh  Buhad ,14,Village Road,Black Top,,6/695,,20,0,Totally Damaged,20,,,,,,,,,Minor Damage,50,5,Landslides ,3134762,76.589466,Self Visit,,
206,Bilaspur,Excessive Rain,25-08-2025,Kothipura(Sub-divn. no-3),KOTHIPURA ,Roads,National Highway No.205 ,6,Major District Road,Black Top,,121/645 to 121/670,25,25,0,,,,,,,,,,,,,1.5,Road Crust & Removal of Slips ,31.277,76.76,Self Visit,,
207,Bilaspur,Excessive Rain,25-08-2025,Deoth(Sub-divn. no-3),Deoth ,Roads,Brahmpukhar Deoth Shelli Road,11.48,Village Road,Black Top,,7/480 to 7/500,20,20,0,,,,,,,,,,,,,0.2,Slips ,31.223,76.827,Self Visit,,
208,Bilaspur,Excessive Rain,25-08-2025,Deoth(Sub-divn. no-3),Deoth ,Roads,Brahmpukhar Deoth Shelli Road,11.48,Village Road,Black Top,,0/430 to 0/480,40,40,0,,,,,,,,,,,,,0.2,Removal of Slips  ,31.255,76.82,Self Visit,,
209,Bilaspur,Excessive Rain,25-08-2025,Kothipura(Sub-divn. no-3),Kothipura,Roads,Link Road Rajpura Chilla Charnmore Road ,5.21,Village Road,Black Top,,0/615 to 0/630,15,,15,,,Additional B/Wall Required,15,,,,,,,,,1.5,Required B/wall & Removal Of Slips  ,31.269,76.786,Self Visit,,
210,Bilaspur,Excessive Rain,25-08-2025,Deoth(Sub-divn. no-3),Deoth ,Roads, Deoth to  Dabbar  Road 0/0 to 10/960,10.96,Village Road,Black Top,,5/440 to 5/480,40,40,0,,,,,,,,,,,,,0.2,Removal of Slips ,31.237,75,Self Visit,,
211,Bilaspur,Excessive Rain,25-08-2025,Deoth(Sub-divn. no-3),Deoth ,Roads,Deoth Lagghat Jamli Road 0/0 to 13/160,8,Village Road,Black Top,,2/250 to 2/350,100,,100,,,,,,,,,,,,,0.3,Slips ,31.24,75,Self Visit,,
212,Bilaspur,Excessive Rain,25-08-2025,Chharol(Sub-divn. no-3),chharol ,Roads,National Highway No.205 105/0 to 116/00,11,Major District Road,Black Top,,105/605 to 105/630,25,25,0,,,,,,,,,,,,,0.2,,31.22693183,76.77737863,Self Visit,,
213,Bilaspur,Excessive Rain,25-08-2025,Chharol(Sub-divn. no-3),chharol,Roads,National Highway No.205 105/0 to 116/0,11,Major District Road,Black Top,,111/570 to 111/585,15,15,0,,,,,,,,,,,,,0.15,Road Curst & Slips,31.25604547,76.76855199,Self Visit,,
214,Bilaspur,Excessive Rain,25-08-2025,Chharol(Sub-divn. no-3),Chharol ,Roads, Link Road to Vill. Kachouli 0/0 to 5/0,5,Village Road,Black Top,,0/030 to 0/045,15,15,0,,,,,,,,,,,,,0.5,Removal of Slips ,31.275,76.75,Self Visit,,
215,Bilaspur,Excessive Rain,25-08-2025,Chharol(Sub-divn. no-3),chharol ,Roads,Deoth Lagghat Jamli Road  8/0 to 13/160,5.16,Village Road,Black Top,,8/875 to 8/890,15,15,0,,,,,,,,,,,,,0.5,Road Crust &Slips ,31.23220041,76.77905229,Self Visit,,
216,Bilaspur,Excessive Rain,25-08-2025,Store (dholra)(Sub-divn. no-3),Store ,Roads,National Highway No.205 116/0 to 121/0,5,Major District Road,Black Top,,117/360 to 117/375,15,15,0,,,,,,,,,,,,,0.2,,31.28,76.739,Self Visit,,
217,Bilaspur,Landslide,25-08-2025,Kalol(Kalol),Salwad,Roads,Baghchhal to marotan,4,Village Road,Black Top,,0/105,,50,0,,,,,,,,,,,Totally Damaged,100,0.5,,31.262449,76.683459,Self Visit,,
218,Bilaspur,Landslide,25-08-2025,Kalol(Kalol),Paploa,Roads,Buhad to malhot,5.79,Village Road,Black Top,,3/650,20,,0,,,Totally Damaged,20,,,,,,,Totally Damaged,90,4,,31.292607,76.647224,Self Visit,,
219,Bilaspur,Landslide,25-08-2025,Kalol(Kalol),Paploa,Roads,Buhad to malhot,5.79,Village Road,Black Top,,2/345,,15,0,,,Additional B/Wall Required,15,,,,,,,Totally Damaged,150,2.5,Bwall required,31.299074,76.641963,Self Visit,,
220,Bilaspur,Excessive Rain,25-08-2025,N.b.t. (changer)(Sub-divn. no-2 bilaspur.),MC Bilaspur,Roads,VIP Road Veterinary Hospital  to Petrol Pump,1,Major District Road,Black Top,,0/445 to 0/460,,50,0,Minor Damage,15,,,,,,,,,Minor Damage,,1,,31.33415,76.76373,Self Visit,,
221,Bilaspur,Excessive Rain,25-08-2025,Kalol(Kalol),Kalol,Roads,Link road to rest house kalol,0.45,Village Road,Black Top,,0/150,,20,0,,,,,,,,,,,Severely Damaged,50,0.2,Tree fallen,31.344232,76.605712,Self Visit,,
222,Bilaspur,Landslide,25-08-2025,Kalol(Kalol),Malangan,Roads,BBC ROAD,7,Village Road,Black Top,,19/050,,50,0,,,Minor Damage,10,,,,,,,Totally Damaged,230,2.5,,31.373391,76.601493,Self Visit,,
223,Bilaspur,Excessive Rain,26-08-2025,Kothipura(Sub-divn. no-3),Kachouli ,Roads,Rajpura to Chilla Charanmore Road 0/0 to 5/210,5.21,Village Road,Black Top,,1/330 to 1/360,30,30,0,Additional R/Wall Required,30,,,,,,,,,,,10,Required R/WALL ,31.268,76.789,Self Visit,,
224,Bilaspur,Landslide,25-08-2025,Kalol(Kalol),Salwad,Roads,Marotan to Dhani ROAD,8,Village Road,Black Top,,3/060,,20,0,,,,,,,,,,,Totally Damaged,60,0.3,,31.284329,76.656976,Self Visit,,
225,Bilaspur,Landslide,25-08-2025,Kalol(Kalol),Salwad,Roads,Marotan to Dhani ROAD,8,Village Road,Black Top,,1/750,22,,0,,,Totally Damaged,22,,,,,,,Totally Damaged,50,5,,31.284072,76.660857,Self Visit,,
226,Bilaspur,Excessive Rain,25-08-2025,Kalol(Kalol),Salwad,Roads,Marotan to Dhani ROAD,8,Village Road,Black Top,,1/740 to 1/760,20,,0,Minor Damage,20,,,,,,,,,Minor Damage,50,4.5,Riad settle down valley side... Reqired rwall,31.283927,76.66111,Self Visit,,
227,Bilaspur,Excessive Rain,26-08-2025,Kothipura(Sub-divn. no-3),Rajpura ,Roads,Kothipura to Deoth road 0/0 to 8/780,8.78,Village Road,Black Top,,1/370 to 1/390,20,,0,,,,,,,,,,,,,1.5,Road Crust &Slips ,31.278,76.779,Self Visit,,
228,Bilaspur,Landslide,25-08-2025,Kalol(Kalol),Salwad,Roads,Marotan to Dhani ROAD,8,Village Road,Black Top,,1/370,,40,0,,,Minor Damage,40,,,,,,,Totally Damaged,100,5,,31.283618,76.664618,Self Visit,,
229,Bilaspur,Landslide,25-08-2025,Kalol(Kalol),Salwad,Roads,BJSM ROAD,20,Village Road,Black Top,,19/700,15,,0,Minor Damage,15,,,,,,,,,Totally Damaged,50,4.5,,31.282228,76.67394,Self Visit,,
230,Bilaspur,Excessive Rain,26-08-2025,Deoth(Sub-divn. no-3),Deoth ,Roads,Deoth Lagghat Jamli Road 0/0 to 13/160,8,Village Road,Black Top,,1/090 to 1/150,60,60,0,,,,,,,,,,,,,0.15,Slips ,31.24143516,76.8064659,Self Visit,,
231,Bilaspur,Excessive Rain,26-08-2025,Deoth(Sub-divn. no-3),Deoth ,Roads,Brahmpukhar Deoth Shelli Road 0/0 to 11/480,11.48,Village Road,Black Top,,0/090 to 0/150 &0/580 to 0/630,110,,110,,,,,,,,,,,,,0.3,,31.25214318,76.81290781,Self Visit,,
232,Bilaspur,Excessive Rain,26-08-2025,Deoth(Sub-divn. no-3),Deoth ,Roads, Deoth to  Dabbar  Road 0/0 to 10/960,10.96,Village Road,Black Top,,0/0 to 10/960,200,,200,,,,,,,,,,,,,2.4,Road Crust in Various RD'S,31.24874605,76.8212143,Self Visit,,
233,Bilaspur,Landslide,26-08-2025,Kalol(Kalol),Salwad,Roads,Baghchal to Marotan ROAD,4,Village Road,Black Top,,0/030,35,,0,Minor Damage,35,,,,,,,,,Totally Damaged,50,3.5,,31.261948,76.683402,Self Visit,,
234,Bilaspur,Excessive Rain,26-08-2025,Buhad(Kalol),Sanehra,Roads,Theh  Buhad ,14,Village Road,Black Top,,0/500,20,,0,Minor Damage,20,,,,,,,,,Minor Damage,20,5,Landslides ,31.38819,76.564708,Self Visit,,
235,Bilaspur,Landslide,25-08-2025,Kalol(Kalol),Dhani ,Roads,Marotan to Dhani ROAD,8,Village Road,Black Top,,5/120,40,,0,,,Severely Damaged,20,,,,,,,Totally Damaged,150,5.5,,31.280026,76.65107,Self Visit,,
236,Bilaspur,Landslide,25-08-2025,Kalol(Kalol),Dhani ,Roads,Marotan to Dhani ROAD,8,Village Road,Black Top,,4/150,30,,0,,,Minor Damage,20,,,,,,,Totally Damaged,100,3.5,,31.283221,76.651884,Self Visit,,
237,Bilaspur,Landslide,25-08-2025,Kalol(Kalol),Dhani ,Roads,Marotan to Dhani ROAD,8,Village Road,Black Top,,3/750,30,,0,,,,,,,,,,,Totally Damaged,50,1.5,,31.284415,76.653068,Self Visit,,
238,Bilaspur,Excessive Rain,26-08-2025,Buhad(Kalol),Jaddu kuljair,Roads,Dogga thathal jangle,3,Village Road,Black Top,,1/930,,50,0,,,,,,,,,,,Minor Damage,50,1,Landslides ,31.400533,76.534783,Self Visit,,
239,Bilaspur,Excessive Rain,26-08-2025,Buhad(Kalol),Dhudhiyan ,Roads,Dholak chaknar to gah,5,Village Road,Black Top,,0/555,,100,0,,,,,,,,,,,Minor Damage,100,2,Landslides ,31.318517,76.613451,Self Visit,,
240,Bilaspur,Excessive Rain,26-08-2025,Kalol(Kalol),Bharolikallan,Roads,BBC ROAD,7,Village Road,Black Top,,22/350,,30,0,,,,,,,,,,,Severely Damaged,30,0.05,,31.374134,76.57756,Self Visit,,
241,Bilaspur,Landslide,26-08-2025,Kalol(Kalol),Salwad,Roads,Baghchal to Marotan ROAD,4,Village Road,Black Top,,0/105,,,0,,,,,,,,,,,Totally Damaged,150,5.5,,31.262573,76.683379,Self Visit,,
242,Bilaspur,Flash flood,25-08-2025,Berthin(Berthin),Sunhani,Roads,Sunhani-Doon road,4.5,Village Road,Black Top,,0/900to 1/100,200,100,100,Additional R/Wall Required,30,,,Minor Damage,1,,,,,Severely Damaged,130,40,Requires Retaining wall towards valley side and drainage and culvert toe wall,31.414551,76.667439,Recieved from Others,Vikram,9805800407
243,Bilaspur,Excessive Rain,26-08-2025,Buhad(Kalol),Paploa,Roads,Chounta Dhani,27,Village Road,Black Top,,24/435,,40,0,,,,,,,,,,,Minor Damage,50,1,Landslides ,31.93286,76.624821,Self Visit,,
244,Bilaspur,Excessive Rain,27-08-2025,Buhad(Kalol),Jaddu kuljair,Roads,Gangloh malraon,18,Village Road,Black Top,,9/385,,20,0,Totally Damaged,20,,,,,,,,,Minor Damage,100,3,Landslides ,31.360245,76.563451,Self Visit,,
245,Bilaspur,Excessive Rain,27-08-2025,Bandla(Sub-divn. no-2 bilaspur.),Bamta,Roads,Chandigarh Mandi Manali road Km. 127/00 to 156/750.,29.75,Major District Road,Black Top,,139/915 to 139/925,10,10,0,Minor Damage,10,,,,,,,,,Minor Damage,,2.5,,31.362983,76.76852,Self Visit,,
246,Bilaspur,Landslide,29-08-2025,Kalol(Kalol),Salwad,Roads,Baghchhal to marotan,4,Village Road,Black Top,,0/435,60,,0,,,Minor Damage,30,,,,,,,Totally Damaged,150,9.5,,31.263491,76.684006,Self Visit,,
247,Bilaspur,Landslide,29-08-2025,Kalol(Kalol),Paploa,Roads,Buhad to malhot,5.79,Village Road,Black Top,,2/330  b  2/985,,55,0,,,Minor Damage,25,,,,,,,Totally Damaged,100,3.5,,31.299178,76.641631,Self Visit,,
248,Bilaspur,Excessive Rain,29-08-2025,Kalol(Kalol),Bharolikallan,Roads,BBC ROAD,7,Village Road,Black Top,,21/350 to 21/360,,10,0,Totally Damaged,0,Minor Damage,20,,,,,,,Minor Damage,100,4.5,,31.37095,76.586378,Self Visit,,
249,Bilaspur,Landslide,29-08-2025,Kalol(Kalol),Bharolikallan,Roads,Bharolikallan to bagrukhurd,3.5,Village Road,Black Top,,1/010  ; 0/450,,90,0,,,,,,,,,,,Severely Damaged,300,1,,31.381812,76.573328,Self Visit,,
250,Bilaspur,Landslide,29-08-2025,Kalol(Kalol),Malangan,Roads,Link road to village kallar,1.5,Village Road,Black Top,,0/495,40,,0,Minor Damage,15,,,,,,,,,Totally Damaged,90,4,,31.375979,76.597815,Self Visit,,
251,Bilaspur,Landslide,29-08-2025,Kalol(Kalol),Dhani,Roads,Marotan to dhani,8,Village Road,Black Top,,7/130,,30,0,,,Severely Damaged,15,,,,,,,Severely Damaged,60,1,,31.279494,76.641521,Self Visit,,
252,Bilaspur,Landslide,29-08-2025,Kalol(Kalol),Salwad,Roads,Marotan to dhani,8,Village Road,Black Top,,1/370,40,,0,,,Minor Damage,40,,,,,,,Totally Damaged,100,3.5,,31.268304,76.711826,Self Visit,,
253,Bilaspur,Landslide,29-08-2025,Kalol(Kalol),Salwad,Roads,Baghchhal to marotan,4,Village Road,Black Top,,0/015 to 0/060,45,,0,Minor Damage,25,,,,,,,,,Totally Damaged,45,5.5,,31.261738,76.683444,Self Visit,,
254,Bilaspur,Landslide,29-08-2025,Kalol(Kalol),Salwad,Roads,Baghchhal to marotan,4,Village Road,Black Top,,0/105,,40,0,,,,,,,,,,,Severely Damaged,60,1.5,,31.262759,76.683343,Self Visit,,
255,Bilaspur,Excessive Rain,03-09-2025,Chharol(Sub-divn. no-3),chharol ,Roads,Link road NH 21 Jamli to Neri 0/0 to 2/150,2.15,Village Road,Black Top,,0/0 to 0/030,30,30,0,,,,,,,,,,,,,0.3,Removal of Slips &Road Crust ,31.22562547,76.77935989,Self Visit,,
256,Bilaspur,Excessive Rain,03-09-2025,Chharol(Sub-divn. no-3),Chharol,Roads,National Highway No.205 105/0 to 116/0,11,Major District Road,Black Top,,"109/630 to 109/700 ,110/270 to 110/290,110/565 to 110/585 &110/810 to 110/930",230,230,0,,,,,,,,,,,,,3.05,Removal of Slips &Road Crust ,31.26249016,76.76526713,Self Visit,,
257,Bilaspur,Excessive Rain,01-09-2025,Kothipura(Sub-divn. no-3),kachouli ,Roads,Link road to Chilla Chougla Sai Brahmna  0/0  to 1/300  ,1.3,Village Road,Earthen Road,,0/900 to 1/030,120,120,0,,,,,,,,,,,,,6,Slips &Required B/WALL ,31.264,76,Self Visit,,
258,Bilaspur,Excessive Rain,01-09-2025,Deoth(Sub-divn. no-3),Deoth,Roads, Deoth to  Dabbar  Road 0/0 to 10/960,10.96,Village Road,Black Top,,1/090 to 14/120,30,30,0,,,,,,,,,,,,,0.1,Slips ,31,76.818,Self Visit,,
259,Bilaspur,Excessive Rain,01-09-2025,Deoth(Sub-divn. no-3),Deoth,Roads,Brahmpukhar Deoth Shelli Road 0/0 to 11/480,11.48,Village Road,Black Top,,2/075 to 2/105,30,30,0,,,,,,,,,,,,,0.3,,31.252,76.812,Self Visit,,
260,Bilaspur,Excessive Rain,01-09-2025,Deoth(Sub-divn. no-3),Methi ,Roads,Link road Maithi to Saikali 0/0 to 4/240 ,4.24,Village Road,Black Top,,0/375 to 0/500,125,,70,,,,,,,,,,,,,0.4,Slips ,31.237,76.799,Self Visit,,
261,Bilaspur,Excessive Rain,01-09-2025,Deoth(Sub-divn. no-3),Methi ,Roads,Deoth Lagghat Jamli Road 0/0 to 13/160,13.16,Village Road,Black Top,,5/400 to 5/440,40,40,0,,,,,,,,,,,,,0.1,Slips ,31.233,76.8,Self Visit,,
262,Bilaspur,Excessive Rain,01-09-2025,Chharol(Sub-divn. no-3),Chharol,Roads,National Highway No.205 105/0 to 116/00,11,Major District Road,Black Top,,105/030 to 105/045,15,15,0,Additional R/Wall Required,15,,,,,,,,,,,1.5,Required R/wALL ,31.226,76.776,Self Visit,,
263,Bilaspur,Excessive Rain,01-09-2025,Buhad(Kalol),Dhudhiyan ,Roads,Theh  Buhad ,14,Village Road,Black Top,,5/570,,20,0,Minor Damage,20,,,,,,,,,Minor Damage,50,2,Landslides ,31.351884,76.583462,Self Visit,,
264,Bilaspur,Excessive Rain,01-09-2025,Buhad(Kalol),Paploa,Roads,Chounta Dhani Pukhar,27,Village Road,Black Top,,21/145,,10,0,Minor Damage,10,,,,,,,,,Minor Damage,50,2,Landslides ,31.298707,76.622937,Self Visit,,
265,Bilaspur,Excessive Rain,01-09-2025,Chharol(Sub-divn. no-3),Chharol,Roads,National Highway No.205 105/0 to 127/0,11,Major District Road,Black Top,,111/795 to 111/825,30,30,0,,,,,,,,,,,,,0.8,Slips & Crust ,31.263,76.763,Self Visit,,
266,Bilaspur,Excessive Rain,01-09-2025,Chharol(Sub-divn. no-3),Methi ,Roads,Lagghat to Jainagar road 0/0 to 1/270 ,1.27,Village Road,Black Top,,0/055 to 0/075,20,20,0,Additional R/Wall Required,20,,,,,,,,,,,3.5,Required R/wall &Slips  ,31.227,76.797,Self Visit,,
267,Bilaspur,Excessive Rain,01-09-2025,Chharol(Sub-divn. no-3),Methi ,Roads,Deoth Lagghat Jamli Road 8/00  to 13/160,5.16,Village Road,Black Top,,10/310 to 10/360,50,50,0,,,,,,,,,,,,,1.5,Removal of Slips ,31.233,76.78,Self Visit,,
268,Bilaspur,Excessive Rain,01-09-2025,Chharol(Sub-divn. no-3),KACHOULI,Roads, Link Road to Vill. Kachouli 0/0 to 5/0,5,Village Road,Black Top,,0/0 to 0/30,30,30,,,,,,,,,,,,,,0.4,Removal of Slips ,31.274,76.752,Self Visit,,
269,Bilaspur,Excessive Rain,03-09-2025,Chharol(Sub-divn. no-3),CHHAROL  ,Roads,National Highway No.205 105/0 to 116/00,11,Major District Road,Black Top,,105/220 to 105/890,400,,400,,,,,,,,,,,,,1.1,Road Crust &Removal of Slips ,31.23156865,76.77705642,Self Visit,,
270,Bilaspur,Excessive Rain,03-09-2025,Chharol(Sub-divn. no-3),chharol,Roads,Lagghat to Jainagar road 0/0 to 1/270 ,1.27,Village Road,Black Top,,0/810 to 0/850,40,40,0,,,,,,,,,,,,,0.7,Road Crust &Removal of Slips ,31.22758341,76.80392974,Self Visit,,
271,Bilaspur,Excessive Rain,01-09-2025,Kalol(Kalol),Paploa,Roads,Buhad to malhot,5.79,Village Road,Black Top,,1/820 to 1/850,30,70,0,Minor Damage,30,,,,,,,,,Totally Damaged,100,5,,31.302919,76.64067,Self Visit,,
272,Bilaspur,Landslide,01-09-2025,Kalol(Kalol),Paploa,Roads,Buhad to malhot,5.79,Village Road,Black Top,,1/630: 1/945:2/340:2/985,,100,0,,,Minor Damage,30,,,,,,,Totally Damaged,60,3,,31.294997,76.642287,Self Visit,,
273,Bilaspur,Landslide,01-09-2025,Kalol(Kalol),Salwad,Roads,Baghchal to Marotan ROAD,4,Village Road,Black Top,,0/015::0/145::0/495:3/600,,120,0,Minor Damage,28,,,,,,,,,Totally Damaged,90,5,,31.262161,76.682516,Self Visit,,
274,Bilaspur,Excessive Rain,01-09-2025,Kalol(Kalol),Salwad,Roads,Salwad to balhchalog  ROAD,5,Village Road,Black Top,,2/00 to 2/250,,250,0,Minor Damage,25,Minor Damage,15,,,,,,,Totally Damaged,250,7.5,,31.284641,76.679085,Self Visit,,
275,Bilaspur,Excessive Rain,01-09-2025,Kalol(Kalol),Salwad,Roads,BJSM ROAD,20,Village Road,Black Top,,15/495 to 15/555,60,,0,Minor Damage,60,,,,,,,,,Totally Damaged,100,25,Riad settle down valley side... Reqired rwall,31.29947,76.657691,Self Visit,,
276,Bilaspur,Landslide,01-09-2025,Kalol(Kalol),Jejwin,Roads,BJSM ROAD,20,Village Road,Black Top,,8/400: 12/380: 10/230::  5/150:: 7/150,,125,0,,,Minor Damage,20,,,,,,,Totally Damaged,50,5,,31.326104,76.63132,Self Visit,,
277,Bilaspur,Excessive Rain,01-09-2025,Kalol(Kalol),Salwad,Roads,Baghchal to Marotan ROAD,4,Village Road,Black Top,,3/730 to 3/770,40,,0,Additional R/Wall Required,40,Minor Damage,25,,,,,,,Totally Damaged,200,25,Riad settle down valley side... Reqired rwall,31.279565,76.67568,Self Visit,,
278,Bilaspur,Excessive Rain,02-09-2025,Kothipura(Sub-divn. no-3),Raipura Kachouli ,Roads,Rajpura to Chilla Charanmore Road 0/0 to 5/210,5.21,Village Road,Black Top,,0/360 to 0/370,10,10,0,,,,,,,,,,,,,0.5,Slips ,31.268,76.789,Self Visit,,
279,Bilaspur,Excessive Rain,02-09-2025,Deoth(Sub-divn. no-3),Deoth ,Roads, Deoth to  Dabbar  Road 0/0 to 10/960,10.96,Village Road,Black Top,,9/060 to 9/100,40,40,0,,,,,,,,,,,,,0.2,Slips ,31.239,76.848,Self Visit,,
280,Bilaspur,Excessive Rain,02-09-2025,Deoth(Sub-divn. no-3),Methi Deoth ,Roads,Deoth Lagghat Jamli Road 0/0 to 13/160,8,Village Road,Black Top,,1/650 to 1/750,100,,70,,,,,,,,,,,,,0.2,Road Crust &Removal of Slips ,31.24476045,76.80204042,Self Visit,,
281,Bilaspur,Excessive Rain,02-09-2025,Deoth(Sub-divn. no-3),Deoth ,Roads,Brahmpukhar Deoth Shelli Road 0/0 to 11/480,11.48,Village Road,Black Top,,0/090 to 0/130,40,40,0,,,,,,,,,,,,,0.2,Road Crust &Slips ,31.22149966,76.82963893,Self Visit,,
282,Bilaspur,Excessive Rain,02-09-2025,Deoth(Sub-divn. no-3),Methi ,Roads,Link road Maithi to Saikali 0/0 to 4/240,4.24,Village Road,Black Top,,0/150 to 0/195,45,45,,Additional R/Wall Required,45,Additional B/Wall Required,45,,,,,,,Totally Damaged,45,3,Road Damages Required R/WALL &b/WALL ,31.237,76.799,Self Visit,,
283,Bilaspur,Excessive Rain,04-09-2025,Bandla(Sub-divn. no-2 bilaspur.),Bandla,Roads,Binayakghat Bandla Sihra Bilaspur road,23,Major District Road,Black Top,,2/150 TO 2/160,10,10,,,,,,,,,,,,Minor Damage,10,1,,31.288991,76.799119,Self Visit,,
284,Bilaspur,Excessive Rain,03-09-2025,Bandla(Sub-divn. no-2 bilaspur.),Bandla,Roads,Binayakghat Bandla Sihra Bilaspur road,23,Major District Road,Black Top,,0/900 TO 0/950,50,50,,,,,,,,,,,,Minor Damage,50,0.7,,31.33246,76.75872,Self Visit,,
285,Bilaspur,Landslide,18-09-2025,Kalol(Kalol),Salwad,Roads,BJSM ROAD,20,Village Road,Black Top,,19/870,,,0,Totally Damaged,0,,,,,,,,,,,15,,31.281868,76.674231,Self Visit,,
286,Bilaspur,Excessive Rain,18-09-2025,Buhad(Kalol),Dhudhiyan ,Roads,Theh  Buhad ,14,Village Road,Black Top,,4/620,50,,0,Totally Damaged,50,,,,,,,,,Minor Damage,100,25,Landslides ,31.357866,76.579597,Self Visit,,
287,Bilaspur,Excessive Rain,05-09-2025,Kothipura(Sub-divn. no-3),Kachouli ,Roads,Rajpura Chilla Charnmore  road km 0/0 to 5/210,5.21,Village Road,Black Top,,1/225 to 1/285 ,60,60,0,,,Additional B/Wall Required,60,,,,,,,Totally Damaged,60,6,Required B/wall &Removal of Slips ,31.269,76.78,Self Visit,,
288,Bilaspur,Excessive Rain,06-09-2025,Chharol(Sub-divn. no-3),CHHAROL,Roads,National Highway No.205 105/0 to 116/0,11,Major District Road,Black Top,,105/045 to 105/075,30,30,0,Additional R/Wall Required,30,,,,,,,,,,,17.44,Required R/wall ,31.225,75,Self Visit,,
289,Bilaspur,Excessive Rain,06-09-2025,Kothipura(Sub-divn. no-3),Kallar ,Roads,National Highway No.205 121/0 to 127/0,6,Major District Road,Black Top,,121/464 to 121/480,16,16,0,Additional R/Wall Required,16,,,,,,,,,,,17.95,Required R/wall ,31.277,76.758,Self Visit,,
290,Bilaspur,Excessive Rain,15-07-2025,Jhandutta(Jhandutta),,Roads,Anandghat to Behran ,3,Village Road,Black Top,,at various rd,1200,,1200,Minor Damage,50,Minor Damage,20,,,,,,,Minor Damage,100,0.2,Drain choked at RD 0/015 to 0/090,31.376699,76.640534,Self Visit,,
291,Bilaspur,Excessive Rain,31-08-2025,Ghumarwin-3(Ghumarwin),,Roads,GTB to Baloh,1.5,Village Road,Black Top,,0/000 to 1/500,,600,900,,,,,,,,,,,,,20,,31.1149,76.693,Self Visit,,
292,Bilaspur,Excessive Rain,27-08-2025,Baner(Sub-divn. swarghat),tanbol,Roads,Chandigarh Mandi Manali road km 86/00 to 105/00,19,Major District Road,Black Top,,103/110 to 103/130,,20,,Additional R/Wall Required,20,,,,,,,,,,,6,Valley side erosion due to heavy rain R/Wall required for maintaining proper roadway/ carriageway width,31.228999,76.759529,Self Visit,,
293,Bilaspur,Excessive Rain,05-07-2025,Jhandutta(Jhandutta),,Roads,MDR-905 Panol Jhandutta Nandnagraon Jejwin km 0/00 to 21/500,21.5,Major District Road,Black Top,,at various rd,2000,1500,500,Minor Damage,200,Minor Damage,100,Severely Damaged,1,Minor Damaged,1,Minor Damaged,1,Minor Damage,1000,0.7,Drain choked at RD 0/150 to to 0/350 Minor Slips at RD 6/350 to 6/470 Minor Slips at RD 6/670 to 6/750,31.360159,76.640871,Self Visit,,
294,Bilaspur,Excessive Rain,18-09-2025,Kalol(Kalol),Salwad,Roads,Baghchal to Marotan ROAD,4,Village Road,Black Top,,0/00 to 0/035,35,,0,Totally Damaged,0,,,,,,,,,Totally Damaged,100,10,Landslide and Rwall required ,31.253612,76.682237,Self Visit,,
295,Bilaspur,Excessive Rain,18-09-2025,Kalol(Kalol),Bharolikallan,Roads,BBC road ,7,Village Road,Black Top,,21/980,25,,0,Minor Damage,25,,,,,,,,,Totally Damaged,175,7.5,,31.371939,76.581688,Self Visit,,
296,Bilaspur,Excessive Rain,18-09-2025,Kalol(Kalol),Salwad,Roads,Link road to village kutheran,1.5,Village Road,Black Top,,0/505,20,,0,Minor Damage,20,,,,,,,,,Totally Damaged,40,7.5,,31.295953,76.662362,Self Visit,,
297,Bilaspur,Excessive Rain,17-06-2025,Geherwin(Jhandutta),,Roads,Samoh Gehrwin Hhuran road km 0/00 to 13/00,13,Village Road,Black Top,,AT VARIOUS RD,100,100,0,Minor Damage,2,Minor Damage,3,Minor Damage,2,,,Minor Damaged,1,Minor Damage,400,,Roiad crust damaged 2/200 to 2/250,31.386599,76.690647,Self Visit,,
298,Bilaspur,Flash flood,30-06-2025,Hatwar(Bharari),Kot ,Roads,Dehra Kot Kangri road,4.255,Village Road,Black Top,,0/00 to0/250,,250,0,,,,,,,,,,,,,3,,31.579901,76.707081,Self Visit,,
299,Bilaspur,Excessive Rain,18-09-2025,Kalol(Kalol),Dhani ,Roads,Dhani to kharli,1.6,Village Road,Black Top,,1/315,80,,0,Minor Damage,80,,,,,,,,,Totally Damaged,100,20,,31.270713,76.647456,Self Visit,,
300,Bilaspur,Landslide,18-09-2025,Kalol(Kalol),Paploa,Roads,Buhad to malhot ,5.79,Village Road,Black Top,,2/480,,30,0,,,Minor Damage,15,,,,,,,Totally Damaged,50,1,,31.298005,76.642594,Self Visit,,
301,Bilaspur,Excessive Rain,05-07-2025,Jhandutta(Jhandutta),,Roads,Anandghat to Amroa 0/00 to 1/750,1.75,Village Road,Black Top,,at various rd,500,500,0,Minor Damage,50,Minor Damage,30,Severely Damaged,2,,,,,Minor Damage,150,2.4,Road crust Damaged and berm washed at RD 0/150 to 0/300 Culvert choked at RD 0/550 Road Suface Damaged and berm washed at RD 0/700 to 0/900,31.38156,75,Self Visit,,
302,Bilaspur,Excessive Rain,01-09-2025,Berthin(Berthin),,Roads,Berthin Chhatdhabiri road,2.5,Village Road,Black Top,,"1/500 , 1/800",90,,90,,,Severely Damaged,20,,,,,,,Severely Damaged,80,10,Require patch works and berm and rwal,31.435183,76636554,Self Visit,,
303,Bilaspur,Landslide,01-09-2025,Berthin(Berthin),Bargaon,Roads,Badgaon Reeradoh road,4.5,Village Road,Black Top,,"2/950, 3/600 to 3/760",160,160,0,Totally Damaged,120,Totally Damaged,160,Minor Damage,2,Minor Damaged,1,,,,,150,Required flood mitigation measure around khad and replacement of road due to scouring and pavement componets,31.391439,76.636061,Self Visit,,
304,Bilaspur,Excessive Rain,03-09-2025,Ghandeer(Berthin),,Roads,Mallari Kallar road km 0/0 to 5/435 ,5.435,Village Road,Black Top,,at various rd,,,300,,,,,,,,,,,,,1.2,Road side berms washad ,31.375935,76,Self Visit,,
305,Bilaspur,Excessive Rain,31-08-2025,Berthin(Berthin),Bargaon,Roads,Badgaon Reeradoh road,4.5,Village Road,Black Top,,2/600,20,20,0,Minor Damage,15,,,Minor Damage,1,,,,,,,30,require replacement of road due to culvert location,31.389745,76.632147,Self Visit,,
306,Bilaspur,Excessive Rain,30-08-2025,Berthin(Berthin),,Roads,Badgaon Reeradoh road,4.5,Village Road,Black Top,,1/600,10,,10,,,,,,,,,,,,,8,Requires Retaining wall,31.394075,76.63519,Self Visit,,
307,Bilaspur,Excessive Rain,31-08-2025,Berthin(Berthin),Bargaon,Roads,Sunhani badgaon road,4,Village Road,Black Top,,"1/500, 2/300",100,80,20,Severely Damaged,15,,,Minor Damage,3,,,,,,,30,Require patch works and berm and restoration of rwall,31.402679,76.644785,Self Visit,,
308,Bilaspur,Landslide,27-08-2025,Berthin(Berthin),Nihan,Roads,Sunhani Kajail Ser ,4,Village Road,Black Top,,"2/000 t0 2/820, 3/850, 3/8703/9003/920, 3/9503/970",200,150,50,Additional R/Wall Required,60,,,Minor Damage,2,,,,,Minor Damage,40,40,Requires Retaining wall/bwall,31.408916,76.67227,Self Visit,,
309,Bilaspur,Landslide,27-08-2025,Berthin(Berthin),,Roads,Ghumarwin Shahtalai MDR 116,31,Major District Road,Black Top,,"4/200, 6/100,6/500, ",60,60,0,Additional R/Wall Required,10,,,Minor Damage,1,Minor Damaged,1,,,,,26,Requires Retaining wall towards valley side and drainage and culvert toe wall,31.403319,76.630982,Self Visit,,
310,Bilaspur,Landslide,25-08-2025,Berthin(Berthin),Sunhani,Roads,Sunhani Kajail Ser ,4,Village Road,Black Top,,5/400 and 6/300,70,70,0,Additional R/Wall Required,40,,,Minor Damage,2,,,,,Severely Damaged,60,30,Requires Retaining wall/bwall and toe wall of culvert,31.400758,76.667657,Self Visit,,
311,Bilaspur,Excessive Rain,25-08-2025,Berthin(Berthin),,Roads,berthin Sargal road,2,Village Road,Black Top,,1/640 and 1/780,150,80,70,,,,,,,,,,,,,7,Requires Retaining wall towards valley side and drainage and culvert toe wall and removal of landslide,31.421006,76663719,Self Visit,,
312,Bilaspur,Landslide,25-08-2025,Berthin(Berthin),Sunhani,Roads,berthin Sargal road,2,Village Road,Black Top,,0/900,20,15,5,,,,,,,,,,,,,2,Removal of landslide,31.420321,76653550,Self Visit,,
313,Bilaspur,Landslide,25-08-2025,Berthin(Berthin),Sunhani,Roads,sunhani doon road,4.5,Village Road,Black Top,,0/600 ,30,20,10,,,,,,,,,,,,,20,Requires Retaining wall/bwall,31.410438,76668380,Self Visit,,
314,Bilaspur,Excessive Rain,20-08-2025,Berthin(Berthin),Berthin,Roads,berthin Sargal road,2,Village Road,Black Top,,1/200 to 1/250,50,10,40,,,,,,,,,,,Severely Damaged,40,10,Require patch works and bermand rwall and bwall,31.419482,76655369,Self Visit,,
315,Bilaspur,Landslide,01-07-2025,Hatwar(Bharari),Bum ,Roads,Bum Jahu Road ,3.765,Village Road,Black Top,,2/960 to 2/972,,12,0,,,Severely Damaged,12,,,,,,,,,2.5,,31.554245,76.705204,Self Visit,,
316,Bilaspur,Landslide,19-08-2025,Berthin(Berthin),Berthin,Roads,berthin Sargal road,2,Village Road,Black Top,,0/800  to 0/900,100,40,60,,,,,,,,,,,Severely Damaged,60,15,Requires Retaining wall/bwall,31.420265,76.653698,Self Visit,,
317,Bilaspur,Landslide,18-09-2025,Berthin(Berthin),,Roads,Bhallu to Balghar ,7.6,Village Road,Black Top,,0/000 to 0/020,20,,20,,,,,,,,,,,,,3,Requires Retaining wall/bwall,31.414014,76.619413,Self Visit,,
318,Bilaspur,Excessive Rain,06-08-2025,Nakhlehra(Jhandutta),,Roads,Tihri Panjeen via Rachehra road,7.1,Village Road,Black Top,,at various rd,2000,1200,800,Minor Damage,200,Minor Damage,80,Minor Damage,1,Totally Damaged,2,Minor Damaged,1,Minor Damage,1500,0.5,road crushed at rd 0/630 to 0/670,31.328992,76.701363,Self Visit,,
319,Bilaspur,Excessive Rain,26-08-2025,Ghandeer(Berthin),,Roads, Gujrehra Gocher road km 0/900 ,0.9,Village Road,Black Top,,at various rd,,450,0,,,,,,,,,,,Minor Damage,100,4.5,Land side at both side ,31.417892,76.567031,Self Visit,,
320,Bilaspur,Excessive Rain,11-09-2025,Berthin(Berthin),,Roads,Sunhani Badgaon via Tihra,5.68,Village Road,Black Top,,2/500 to 2/600,100,70,30,,,,,,,,,,,Minor Damage,100,20,Require patch works and berm,31.394049,76.656149,Self Visit,,
321,Bilaspur,Excessive Rain,25-08-2025,Jhandutta(Jhandutta),,Roads,Jhandutta to Bhadolikallan road km 0/00 to 10/00,10,Village Road,Black Top,,at various rd,150,150,50,Additional R/Wall Required,150,Minor Damage,60,,,,,Minor Damaged,2,Minor Damage,200,4.5,Slips at RD 3/240 to 3/255  require B/wall for complete restoration Slips at various RDs from 6/770 to 6/950,31.373384,76.623373,Self Visit,,
322,Bilaspur,Excessive Rain,07-07-2025,Bharari-i(Bharari),Bharari,Roads,Ladhyani to Barota Via lehri Sarail,3.27,Village Road,Black Top,,"0/100 TO 0/500,0/600 TO 0/800,1/00 TO 1/300,1/600 TO 1/900,2/030 TO 2/500",,,1670,,,,,,,,,,,Severely Damaged,1670,2,,31.54128,76.659768,Self Visit,,
323,Bilaspur,Excessive Rain,09-09-2025,Berthin(Berthin),,Roads,Berthin to RH hospital road,1,Village Road,Black Top,,0/000 to 1/000,700,700,0,,,,,Minor Damage,2,Minor Damaged,1,,,Severely Damaged,300,30,Require patch works and berm,31.416787,76644165,Self Visit,,
324,Bilaspur,Excessive Rain,01-09-2025,Nakhlehra(Jhandutta),,Roads,Nkhlehra lulhar via pasol road ,5,Village Road,Black Top,,various rds,500,500,0,Minor Damage,200,Minor Damage,120,Totally Damaged,2,,,Minor Damaged,2,Minor Damage,500,0.5,Land slide at rd 1/900 to 1/950,31.315512,76.679184,Self Visit,,
325,Bilaspur,Landslide,07-07-2025,Ghumarwin-3(Ghumarwin),,Roads,Ghumarwin Berthin Shatalai,4,Major District Road,Black Top,,0/000 to 4/00,75,200,3725,,,,,Severely Damaged,1,,,,,Severely Damaged,3000,4,,31.407,76.672,Self Visit,,
326,Bilaspur,Excessive Rain,12-08-2025,Nakhlehra(Jhandutta),,Roads,Tihri panjeen via Rachehra road ,7.1,Village Road,Black Top,,at various rd,2000,1200,800,Minor Damage,200,Minor Damage,80,Severely Damaged,1,Totally Damaged,2,Minor Damaged,1,Minor Damage,1500,0.5, road crushed at rd 1/900 to 1/970,31.333217,76.693569,Self Visit,,
327,Bilaspur,Excessive Rain,05-08-2025,Jhandutta(Jhandutta),,Roads,Anandghat to Amroa 0/00 to 1/750,1.75,Village Road,Black Top,,at various rd,500,500,0,Minor Damage,50,Minor Damage,30,Severely Damaged,2,,,,,Minor Damage,150,0.1,Slip at RD 0/250,31.381019,76.634409,Self Visit,,
328,Bilaspur,Excessive Rain,03-09-2025,Nakhlehra(Jhandutta),,Roads,Gallian Bala Dehlwin road ,5,Village Road,Black Top,,various rds,2000,1500,500,Minor Damage,200,Minor Damage,100,,,Minor Damaged,1,Minor Damaged,3,Minor Damage,1500,0.1,Land sliding at rd 0/045 to 0/060,31.372312,76.672854,Self Visit,,
329,Bilaspur,Excessive Rain,19-08-2025,Berthin(Berthin),,Roads,Bard to Duhak via Morthal,5.5,Village Road,Earthen Road,,0/000 to 5/550,2000,1200,800,,,,,Minor Damage,2,,,,,,,60,Requires Retaining wall/bwall,31.416964,76680165,Self Visit,,
330,Bilaspur,Excessive Rain,24-08-2025,Berthin(Berthin),,Roads,Sunhani-Doon road,4.5,Village Road,Black Top,,2/500,10,5,5,,,,,Minor Damage,1,,,,,Severely Damaged,10,16,Required toe wall and catchpit,31.42583,76.667216,Self Visit,,
331,Bilaspur,Excessive Rain,22-09-2025,Berthin(Berthin),,Roads,Berthin Sargal road to Kargil Shahid  Mast ram house,1,Village Road,Black Top,,0/000 to 0/500,200,150,50,Additional R/Wall Required,30,Additional B/Wall Required,20,,,,,,,Severely Damaged,70,15,Requires Retaining wall/bwall,31.417893,76667769,Self Visit,,
332,Bilaspur,Flash flood,18-09-2025,Berthin(Berthin),,Roads,Ghumarwin Shahtalai MDR 116,31,Major District Road,Black Top,,6/400 to 6/500,100,100,0,Additional R/Wall Required,55,,,,,,,,,,,35,Requires Retaining wall/bwall,31.412328,76.676516,Self Visit,,
333,Bilaspur,Excessive Rain,31-08-2025,Jhandutta(Jhandutta),,Roads,Jhandutta to Bhadolikallan road km 0/00 to 10/00,10,Village Road,Black Top,,at various rd,150,150,50,Minor Damage,150,Minor Damage,60,,,,,Minor Damaged,2,Minor Damage,200,0.5,Slips at various RDs from 6/550 to 6/760,31.373126,76.623093,Self Visit,,
334,Bilaspur,Landslide,12-07-2025,Bharari-i(Bharari),TAROUN,Roads,Taroun to Barota road,4,Village Road,Earthen Road,,"0/315 to 0/330,2/250 to 2/350",,115,0,,,,,,,,,,,Minor Damage,115,18,,31.5539,76.625694,Self Visit,,
335,Bilaspur,Excessive Rain,06-08-2025,Jhandutta(Jhandutta),,Roads,Jhandutta to Bharilokallan km 0/00 to 10/00,10,Village Road,Black Top,,at various rd,150,150,50,Minor Damage,150,Minor Damage,60,,,,,Minor Damaged,2,Minor Damage,200,0.25,Slip at RD 6/465 to to 6/480  Slip at RD 6/810 to 6/820,31.376749,76.627206,Self Visit,,
336,Bilaspur,Excessive Rain,29-06-2025,Geherwin(Jhandutta),,Roads,Auhar to Barsand road km 0/00 to 5/00 ,5,Village Road,Black Top,,AT VARIOUS RD,700,500,200,Minor Damage,50,Minor Damage,20,Minor Damage,1,Severely Damaged,2,Minor Damaged,2,Minor Damage,1500,,Berms washed 0/850  to 1/100 Berms washed at RD 2/100 to 3/200 Berms washed at RD 4/00 to 4/280 Road crust damaged 0/800 to 0/850,31.364398,76.699246,Self Visit,,
337,Bilaspur,Excessive Rain,25-08-2025,Jukhala(Sub-divn swarghat),Dhuni Panjail,Roads,Namhol Ashamanjhari Road,5.555,Village Road,Black Top,,5/225 to 5/240,,,15,Minor Damage,15,,,,,,,,,,,6,,31.273957,76.847233,Self Visit,,
338,Bilaspur,Excessive Rain,01-07-2025,Jhandutta(Jhandutta),,Roads,Jhandutta to Behran road Km 0/00 to 3/00,3,Village Road,Black Top,,at various rd,500,350,150,Minor Damage,50,Minor Damage,15,Minor Damage,1,,,,,Minor Damage,800,3.5,Road Crust at RD 2/150 to 2/300,31.377134,76.639055,Self Visit,,
339,Bilaspur,Excessive Rain,05-08-2025,Jhandutta(Jhandutta),,Roads,Jhandutta to Bharilokallan km 0/00 to 10/00,10,Village Road,Black Top,,at various rd,150,150,50,Minor Damage,150,Minor Damage,60,,,,,Minor Damaged,2,Minor Damage,200,0.2,Slip at RD 6/335 to 6/350,31.375417,76.626807,Self Visit,,
340,Bilaspur,Excessive Rain,05-07-2025,Jhandutta(Jhandutta),,Roads,Anandghat to Behran ,3,Village Road,Black Top,,at various rd,1000,,1000,Minor Damage,20,Minor Damage,10,,,,,,,Minor Damage,100,0.1,Drain choked at RD 1/690 to 1/825,31.379063,76.645045,Self Visit,,
341,Bilaspur,Excessive Rain,07-07-2025,Bharari-i(Bharari),Bharari,Roads,Barota domehar Mihara Unda road ,2.1,Village Road,Black Top,,0/170 to 0/210,,40,0,,,,,,,,,,,Minor Damage,40,2,,31.553152,76.648189,Self Visit,,
342,Bilaspur,Landslide,01-07-2025,Bharari-i(Bharari),Ladhyani,Roads,Ladhyani to Barota Via lehri Sarail,3.27,Village Road,Black Top,,"2/560 to 2/570,0/280 to 0/300",,30,0,,,,,,,,,,,Minor Damage,30,5,,31.539163,76.664306,Self Visit,,
343,Bilaspur,Excessive Rain,01-07-2025,Bharari-i(Bharari),ghandalwin,Roads,Link road to Bari Chawk,1,Village Road,Black Top,,0/00 to 0/500,,500,0,,,,,,,,,,,Minor Damage,500,10,,31.58247,76.649948,Self Visit,,
344,Bilaspur,Landslide,30-06-2025,Bharari-i(Bharari),BAROTA,Roads,SUSNAL BALDA BHAGYUNDA ROAD ,4.565,Village Road,Black Top,,0/110 to 0/140,,30,0,,,,,,,,,,,Minor Damage,30,3,HILL SIDE LANDSLIDE NEED EDGEWALL,31.542107,76.634639,Self Visit,,
345,Bilaspur,Landslide,06-07-2025,Bharari-i(Bharari),Lehri Sarail,Roads,rohal khad to Ghandalwin via Lehri Sarail ,12.795,Village Road,Black Top,,7/670 to 7/690,50,,0,,,,,,,,,,,Minor Damage,20,5,VALLEY SIDE LANDSLIDE NEED R/WALL,31.542822,76.644384,Self Visit,,
346,Bilaspur,Landslide,18-09-2025,Kalol(Kalol),Kalol,Roads,Bheri to kalol,6,Village Road,Water Bound Macadem,,1/800,,60,0,,,Minor Damage,6,,,,,,,Minor Damage,50,2,,31.363759,76.582624,Self Visit,,
347,Bilaspur,Landslide,18-09-2025,Kalol(Kalol),Kalol,Roads,Bheri to kalol,6,Village Road,Water Bound Macadem,,1/800,,60,0,,,Minor Damage,6,,,,,,,Minor Damage,50,2,,31.363759,76.582624,Self Visit,,
348,Bilaspur,Excessive Rain,18-09-2025,Kalol(Kalol),Bharolikallan,Roads,Bharolikallan to bagdukhurd ,3.5,Village Road,Water Bound Macadem,,0/300 to 0/330,30,50,0,Minor Damage,30,,,,,,,,,Minor Damage,40,18,,31.381261,76.573656,Self Visit,,
349,Bilaspur,Excessive Rain,04-09-2025,Buhad(Kalol),GHRAN,Roads,Ghran Kosherian,5,Village Road,Black Top,,2/580,,15,0,Minor Damage,15,,,,,,,,,Minor Damage,90,2,Landslides ,31.422763,76.522761,Self Visit,,
350,Bilaspur,Excessive Rain,04-09-2025,Buhad(Kalol),GHRAN,Roads,Ghran Kosherian,5,Village Road,Black Top,,1/540,,15,0,Minor Damage,15,,,,,,,,,Minor Damage,200,5,Landslides ,31.421295,76.526937,Self Visit,,
351,Bilaspur,Excessive Rain,04-09-2025,Buhad(Kalol),Sanehra,Roads,Theh  Buhad ,14,Village Road,Black Top,,4/585,30,,0,Minor Damage,30,,,,,,,,,Minor Damage,400,30,Landslides ,31.375605,76.554784,Self Visit,,
352,Bilaspur,Excessive Rain,03-09-2025,Buhad(Kalol),Paploa,Roads,Theh  Buhad ,14,Village Road,Black Top,,13/057,25,,0,Minor Damage,25,,,,,,,,,Minor Damage,80,5,Landslides ,31.315203,76.626477,Self Visit,,
353,Bilaspur,Excessive Rain,01-07-2025,Bharari-i(Bharari),BAROTA,Roads,Dangar to Barota Ladrour road ,9.16,Village Road,Black Top,,6/00 to 9/00,,,3000,,,,,,,,,,,Totally Damaged,3000,25,,31.524553,76.635796,Self Visit,,
354,Bilaspur,Landslide,03-08-2025,Berthin(Berthin),,Roads,Ghumarwin Shahtalai MDR 116,31,Major District Road,Black Top,,6/020,5,3,2,,,,,,,,,,,,,0.1,,31.410578,76.679222,Self Visit,,
355,Bilaspur,Landslide,15-07-2025,Berthin(Berthin),Berthin,Roads,Berthin Chhatdhabiri road,1.6,Village Road,Black Top,,0/485 to 0/495,10,10,0,,,,,,,,,,,Severely Damaged,10,2.5,Requires Retaining wall,31.426369,76.642548,Recieved from Others,Janki Devi,9878738638
356,Bilaspur,Excessive Rain,25-07-2025,Kharshi(Sub-divn swarghat),Sai Kharsi,Roads,Laraghat Bathoh Bholi road,10.5,Village Road,Black Top,,0/750 to 0/760,,10,,Minor Damage,10,,,,,,,,,,,4,,31.309354,76.877047,Self Visit,,
357,Bilaspur,Excessive Rain,06-07-2025,Bharari-i(Bharari),Bharari  and lanjhta,Roads,sumari to lower bhapral,9.2,Village Road,Black Top,,0/00  to 4/00,,,4000,,,,,,,,,,,Totally Damaged,400,11,,31.53318,76.66531,Self Visit,,
358,Bilaspur,Landslide,03-09-2025,Swahan(Sub-divn. swarghat),Tarwar,Roads,Link road to village Mayoth,6.93,Village Road,Black Top,,5/940 to 5/952,,12,,,,Totally Damaged,12,,,,,,,,,2.2,Hill side erosion due to heavy rain Breast Wall required,31.265639,76.60206,Self Visit,,
359,Bilaspur,Excessive Rain,25-08-2025,Jhandutta(Jhandutta),,Roads,MDR-095 km 0/00 to 21/500,21.5,Major District Road,Black Top,,at various rd,2000,1500,500,Minor Damage,100,Minor Damage,80,Minor Damage,2,Minor Damaged,1,,,Minor Damage,1500,0.5,Slips at Rd 6/120 to 6/140,31.359917,76.640307,Self Visit,,
360,Bilaspur,Excessive Rain,06-09-2025,Nakhlehra(Jhandutta),,Roads,Nakhlehra lulhar via pasol road ,5,Village Road,Black Top,,at various rd,2000,1200,800,Minor Damage,200,Minor Damage,80,Minor Damage,1,Minor Damaged,2,Minor Damaged,1,Minor Damage,1500,0.5,land skiding at rd 2/400 to 2/430,31.314702,76.680905,Self Visit,,
361,Bilaspur,Excessive Rain,29-06-2025,Jhandutta(Jhandutta),,Roads,Link road kutla to Prahu km 0/00 to 2/500,2.5,Village Road,Black Top,,at various rd,500,500,0,Minor Damage,100,Minor Damage,70,,,,,,,Minor Damage,1000,0.55,SLIP AT RD:-1/100 to 1/300,31.379431,76.622836,Self Visit,,
362,Bilaspur,Excessive Rain,24-08-2025,Jhandutta(Jhandutta),,Roads,Anandghat to behran road km 0/00 to 3/00,3,Village Road,Black Top,,at various rd,200,100,100,,,,,,,,,,,Minor Damage,100,17.5,Road edge exposed due to slide on valley side at RD 0/690 to 0/720 required R/wall for restoration Slip at RD 0/720 to 0/740 B/wall required,31.37641,76.640365,Self Visit,,
363,Bilaspur,Landslide,02-08-2025,Kalol(Kalol),Salwad,Roads,Buhad to malhot,5.79,Village Road,Black Top,,5/600 to 5/620,,20,0,,,,,,,,,,,Severely Damaged,50,0.5,,31.284703,76.655135,Self Visit,,
364,Bilaspur,Excessive Rain,04-09-2025,Nakhlehra(Jhandutta),,Roads, nakhlehra lulhar via pasol,5,Village Road,Black Top,,at various rd,2000,1200,800,Minor Damage,200,Minor Damage,80,Minor Damage,1,Totally Damaged,2,Minor Damaged,1,Minor Damage,1500,9,road  R/wall prposedat rd 2/220 to 2/250,31.369717,76.679554,Self Visit,,
365,Bilaspur,Excessive Rain,29-06-2025,Jhandutta(Jhandutta),,Roads,JHANDUTTA TO BEHNA BRAHMNA ROAD 0/00 to 5/00,5,Village Road,Black Top,,at various rd,1000,500,500,,,,,,,,,,,Minor Damage,1000,0.35,SLIP AT RD 0/450 TO 0/550,31.362265,76.652937,Self Visit,,
366,Bilaspur,Excessive Rain,29-07-2025,Jhandutta(Jhandutta),,Roads,Jhandutta to Bharolikallan road Km 0/00 to 10/00,10,Village Road,Black Top,,at various rd,150,150,0,Minor Damage,150,Minor Damage,60,,,,,Minor Damaged,2,Minor Damage,200,0.2,Slip at RD 3/450,31.372164,76,Self Visit,,
367,Bilaspur,Excessive Rain,01-08-2025,Ghandeer(Berthin),,Roads,Panchayat Ghar daslehra to gochar road km 0/00 to 1/700,1.7,Village Road,Earthen Road,,at various rds ,100,,100,,,,,,,,,,,,,1,Minor slips at various RD,31.418642,76560499,Self Visit,,
368,Bilaspur,Excessive Rain,01-08-2025,Ghandeer(Berthin),,Roads,Gocher to Kallar via Jhamradina km 0/0 to 1/500,1.5,Village Road,Black Top,,at various rds ,200,,200,,,,,,,,,,,,,2,road crust damaged at various RD ,31.401351,76574488,Self Visit,,
369,Bilaspur,Excessive Rain,01-08-2025,Ghandeer(Berthin),,Roads,Gujrehra Gocher road km 0/900,0.9,Village Road,Black Top,,at various rds,,,150,,,,,,,,,,,Minor Damage,100,4,Minor slips at various RD,31.417892,76.567031,Self Visit,,
370,Bilaspur,Landslide,07-06-2025,Nakhlehra(Jhandutta),,Roads,Baroha to Kohina Road,24,Village Road,Water Bound Macadem,FDR,,4000,2200,1800,Minor Damage,300,Minor Damage,150,Severely Damaged,1,Severely Damaged,4,Minor Damaged,3,Minor Damage,3000,,,31.289018,76.735245,Self Visit,,
371,Bilaspur,Excessive Rain,01-08-2025,Ghandeer(Berthin),ghandeer ,Roads,Ghumarwin Berthin Shah Talai road (MDR-116) km 4/00 to 31/00,31,Major District Road,Black Top,,at various rds ,,,80,,,,,,,,,,,Minor Damage,100,2,road side berms damaged and drain choackedat at various RDs ,31.412537,76609277,Self Visit,,
372,Bilaspur,Excessive Rain,11-08-2025,Ghandeer(Berthin),,Roads,Ghumarwin Berthin Shah Tali road (MDR-116) km 4/00 to 31/00                       ,31,Major District Road,Black Top,,at various RD,,150,0,,,Minor Damage,15,Minor Damage,1,,,,,Minor Damage,600,30,"road side berms damaged and drain choackedat at various RDs KM 19/00 to21/00 & Culvert dameged 20/050 , Culvert dameged 20/300 & 20/500, 20/550",31.4133,76.561286,Self Visit,,
373,Bilaspur,Excessive Rain,25-08-2025,Ghandeer(Berthin),,Roads,Ghumarwin Berthin Shah Talai road (MDR-116) km 4/00 to 31/00 ,31,Major District Road,Black Top,,at various rd,,,50,,,,,,,,,,,Minor Damage,100,3,"road side berms damaged , drain choacked and Slips  at various RDs ",31.4133,76,Self Visit,,
374,Bilaspur,Excessive Rain,19-08-2025,Ghandeer(Berthin),,Roads,Gujrehda Goacher road km 0.900,0.9,Village Road,Black Top,,at various rd,,,40,,,,,,,,,,,Minor Damage,40,0.8,Slips at various RDs,31.417892,76.567031,Self Visit,,
375,Bilaspur,Excessive Rain,25-08-2025,Ghandeer(Berthin),,Roads,Jhabola Gocher road km 0/0 to 6/00,6,Village Road,Black Top,,at various RD,,,150,,,,,,,,,,,Minor Damage,200,3.4,"road side berms damaged , drain choacked and Slips  at various RDs ",31.426861,76.560271,Self Visit,,
376,Bilaspur,Excessive Rain,25-08-2025,Ghandeer(Berthin),,Roads,Gujrehra Gocher road km 0/900 ,0.9,Village Road,Black Top,,at various rd,,,0,,,,,,,,,,,Minor Damage,70,2.5,Land side at both side ,31.417892,76.567031,Recieved from Others,vinod,8219358383
377,Bilaspur,Excessive Rain,25-08-2025,Ghandeer(Berthin),,Roads,Mallari Kallar road ,5.45,Village Road,Black Top,,at various rd,,,120,,,,,,,,,,,,,0.8,Minor slips at various RD,31.375935,76.604685,Self Visit,,
378,Bilaspur,Excessive Rain,29-07-2025,Nakhlehra(Jhandutta),,Roads,Tihri Panjeen via Rachehra road ,7.1,Village Road,Black Top,,various rds,2000,1200,800,Minor Damage,200,Minor Damage,80,Severely Damaged,1,Totally Damaged,4,Minor Damaged,1,Minor Damage,1500,2,Road crushed  at rd 6/750 to 6/900,31.435446,76.732119,Self Visit,,
379,Bilaspur,Excessive Rain,26-08-2025,Ghandeer(Berthin),,Roads,Ghumarwin Berthin Shah Tali road (MDR-116) km 4/00 to 31/00 ,31,Major District Road,Black Top,,at various rd,,,250,Severely Damaged,45,,,,,,,,,,,8,"road side berms damaged , drain chocked and Slips  at various RDs 20/300,21/900,22/00,23/200,21/800 Rwall require at rd 21/800, 18/500, 23/200",31.4133,76.561286,Self Visit,,
380,Bilaspur,Excessive Rain,26-08-2025,Ghandeer(Berthin),,Roads,Mallari Malangan Kallar 0/0 to 5/450,5.45,Village Road,Black Top,,at various rd,,,,,,Minor Damage,40,,,,,,,Minor Damage,50,13.5,road crust damaged and berms damaged at various RD  & minor slips at various rds ,31.375935,76.604685,Self Visit,,
381,Bilaspur,Excessive Rain,26-08-2025,Ghandeer(Berthin),,Roads,Jhabola Gocher road km 0/0 to 6/00,6,Village Road,Black Top,,at various rd,,,70,,,,,,,,,,,Minor Damage,120,3.4,"road side berms damaged , drain chocked and Slips  at various RDs ",31.426861,76.560271,Self Visit,,
382,Bilaspur,Landslide,07-07-2025,Ghumarwin-2(Ghumarwin),Ghumarwin,Roads,Kandrour Panoh Takrera Ghumarwin road,8.3,Village Road,Black Top,,0/00 to 0/200,,100,100,,,,,,,,,,,,,0.5,,31.4347351,76.720929,Self Visit,,
383,Bilaspur,Excessive Rain,24-08-2025,Jhandutta(Jhandutta),,Roads,Link road kutla to Prahu km 0/00 to 2/500,2.5,Village Road,Black Top,,at various rd,500,500,0,Minor Damage,100,Minor Damage,70,,,,,,,Minor Damage,1000,0.2,Slip at Rd 1/335 to 1/345,31.377271,76.619741,Self Visit,,
384,Bilaspur,Cloudburst,25-08-2025,Ghumarwin-3(Ghumarwin),,Roads,Ghumarwin Berthin Shatalai,4,Major District Road,Black Top,,3/600 to 3/675,75,,,,,,,,,,,,,Totally Damaged,75,90,,31.407,76.672,Self Visit,,
385,Bilaspur,Excessive Rain,06-08-2025,Nakhlehra(Jhandutta),,Roads,Link road khalsai tp basandwari road ,2.1,Village Road,Black Top,,at various rd,1500,1000,500,Additional R/Wall Required,200,Minor Damage,100,,,Totally Damaged,2,,,Minor Damage,1800,3,valley side damaged at rd 0/410 to 0/430 required R/wall,31.33421,76.690898,Self Visit,,
386,Bilaspur,Landslide,12-07-2025,Bharari-i(Bharari),TAROUN,Roads,TARGHEL TO LADROUR ROAD,6.825,Village Road,Black Top,,"0/900 to 0/915,1/450 to 1/500",,65,0,,,,,,,,,,,Minor Damage,65,2,,31.574104,76.623213,Self Visit,,
387,Bilaspur,Excessive Rain,27-08-2025,Ghumarwin-3(Ghumarwin),,Roads,Ghumarwin Berthin Shatalai,4,Major District Road,Black Top,,3/465 to 3/485,,20,,Totally Damaged,20,,,,,,,,,,,45,,31.407,76.672,Self Visit,,
388,Bilaspur,Excessive Rain,01-07-2025,Jhandutta(Jhandutta),,Roads,Jhandutta to Bharoli Kallan road Km 0/00 to 10/00,10,Village Road,Black Top,,at various rd,500,500,0,Additional R/Wall Required,100,Minor Damage,80,,,,,,,Minor Damage,200,12.05,Slips at RD 5/550 to 6/675 R/wall at RD 5/550 to 570 R/wall at RD 6/850 to 6/870,31.365601,76.612408,Self Visit,,
389,Bilaspur,Excessive Rain,01-07-2025,Jhandutta(Jhandutta),,Roads,MDR-095 ,19,Major District Road,Black Top,,at various rd,1500,500,1000,Minor Damage,50,Minor Damage,20,,,,,,,Minor Damage,500,1,Slip at RD 6/350 to 6/540 Slip at RD 6/720 to 6/890 Slip at RD 8/690 to 8/820 Slip at RD 7/210 to 7/340,31.358438,76.641839,Self Visit,,
390,Bilaspur,Excessive Rain,29-06-2025,Jhandutta(Jhandutta),,Roads,Link road Dokru to neri via rohal km 0/00 to 2/600,2.6,Village Road,Earthen Road,,at various rd,1200,200,1300,Minor Damage,100,Minor Damage,60,,,,,,,Minor Damage,100,0.7,Solin and wearing damaged at RD 0/800 to 1/200,31.348579,76.649403,Self Visit,,
391,Bilaspur,Excessive Rain,29-06-2025,Jhandutta(Jhandutta),,Roads,MDR-095 Panol Jhandutta Nand Nangraon Jejwin road ,19,Major District Road,Black Top,,at various rd,1500,1000,500,Minor Damage,50,Minor Damage,20,,,,,,,Minor Damage,500,20.9,Berm washed at RD 1/00 to 3/00  Berm washed at RD 4/00 to 6/00  SLIP AT RD:-0/300 TO 0/410  SLIP AT RD:-6/275 TO 6/370 SLIP AT RD:-6/525 TO 6/550 SLIP AT RD:-16/450 to 16/570 SLIP AT RD:-19/100 to 19/190 SLIP AT RD:-19/300to 19/450 R/WALL TO 16/450 TO 16/480 R/WALL AT RD 17/625 TO650 SLIP AT RD 18/200 TO 18/400,31.359427,76.640841,Self Visit,,
392,Bilaspur,Excessive Rain,29-06-2025,Jhandutta(Jhandutta),,Roads,ANANDGHAT TO BEHRAN ROAD 0/00 to 3/00,3,Village Road,Black Top,,AT VARIOUS RD,100,20,80,,,,,,,,,,,Minor Damage,40,11.1,ROAD Crust damaged at RD:-2/150 TO 2/450 ROAD CRUST AT RD :-2/550 TO 2/750 R/WALL required AT RD:-2/495 to 2/515 HPC Culvert choked at RD 2/105 Berm washed at RD 0/300 to 1/200,31.377923,76.636187,Self Visit,,
393,Bilaspur,Excessive Rain,17-06-2025,Jhandutta(Jhandutta),,Roads,Link road Jhandutta Able Behna Brahmna km 0/00 to 1/200,1.2,Village Road,Earthen Road,,AT VARIOUS RD,400,200,200,Minor Damage,60,Minor Damage,20,,,,,,,Minor Damage,100,0.9,Soling and wearing damaged from km 0/015 to 0/120,31.364616,76.654792,Self Visit,,
394,Bilaspur,Excessive Rain,29-06-2025,Jhandutta(Jhandutta),,Roads,Jhandutta to Bharoliyan road km 0/00 to 10/00,10,Village Road,Black Top,,AT VARIOUS RD,100,80,20,Minor Damage,40,Minor Damage,20,,,,,,,Minor Damage,100,14.15,"SLIP AT RD:-0/850 To 0/920,SLIP AT RD:-2/150 TO 2/240 R/wall at RD 2/850 TO 2/875 R/wall at RD 5/450 TO /470 SLIP AT RD 6/275 TO 6/450 SLIP AT RD 6/425 TO 6/750 SLIP AT RD 6/800 TO 6/900",31.37631,76.633577,Self Visit,,
395,Bilaspur,Excessive Rain,17-06-2025,Jhandutta(Jhandutta),,Roads,Link road Dokru to neri via rohal km 0/00 to 2/600,2.6,Village Road,Black Top,,AT VARIOUS RD,600,300,300,Additional R/Wall Required,100,Minor Damage,30,,,,,,,Minor Damage,200,3.5,R/wall required at RD 0/305 to 0/320 ,31.347902,76.649505,Self Visit,,
396,Bilaspur,Excessive Rain,17-06-2025,Jhandutta(Jhandutta),,Roads,Link road kutla to Prahu km 0/00 to 2/500,2.5,Village Road,Black Top,,AT VARIOUS RD,500,100,400,Additional R/Wall Required,50,Minor Damage,40,,,,,,,Minor Damage,500,4.5,R/wall required at RD 1/365 to 1/375 due to susidence on valley side,31.378959,76.622047,Self Visit,,
397,Bilaspur,Excessive Rain,17-06-2025,Jhandutta(Jhandutta),,Roads,MDR-095,19,Major District Road,Black Top,,AT VARIOUS RD,1500,5000,1000,Minor Damage,50,Minor Damage,20,,,,,,,Minor Damage,400,0.1,SLIP AT RD:-0/300 TO 0/410 ,31.360028,76.640486,Self Visit,,
398,Bilaspur,Excessive Rain,17-06-2025,Jhandutta(Jhandutta),,Roads,JHANDUTTA TO BEHNA BRAHMNA ROAD 0/00 to 5/00,5,Village Road,Black Top,,AT VARIOUS RD,400,500,300,Additional R/Wall Required,40,,,,,,,,,Minor Damage,200,5,R/WALL required AT RD:-2/450 to 2/470,31.365083,76.647455,Self Visit,,
399,Bilaspur,Excessive Rain,17-06-2025,Jhandutta(Jhandutta),,Roads,ANANDGHAT TO BEHRAN ROAD 0/00 to 3/00,3,Village Road,Black Top,,AT VARIOUS RD,800,200,600,Minor Damage,100,Minor Damage,30,,,,,,,Minor Damage,500,1.5,ROAD CRUST damaged AT RD:-2/200 TO 2/400,31.37717,76.637499,Self Visit,,
400,Bilaspur,Excessive Rain,17-06-2025,Jhandutta(Jhandutta),,Roads,Jhandutta to Bharoliyan road km 0/00 to 10/00,10,Village Road,Black Top,,AT VARIOUS RD,1500,1000,500,,,,,,,,,,,Minor Damage,200,0.4,SLIP AT RD:-6/300 TO 6/400 ,31.371782,76.606303,Self Visit,,
401,Bilaspur,Excessive Rain,06-09-2025,Ghandeer(Berthin),,Roads,Ghumarwin Berthin Shah Tali road (MDR-116) km 4/00 to 31/00                       ,31,Major District Road,Black Top,,at various rd,,,0,,,,,,,,,,,Minor Damage,200,5,Land slide at hill side & R/wall 0/780 to 0/800,31.4133,76.561286,Self Visit,,
402,Bilaspur,Excessive Rain,03-09-2025,Ghandeer(Berthin),,Roads, Gumarwin Berthin Shah Talai Road  (MDR-116) km 4/00 to 31/00,31,Major District Road,Black Top,,at various rd,,,0,,,,,,,,,,,Minor Damage,150,5,"land slid at RD 4/210,6/200 28/00 to 30/00 &",31.4133,76.561286,Self Visit,,
403,Bilaspur,Excessive Rain,01-09-2025,Ghandeer(Berthin),,Roads,Ghumarwin Berthin Shah Talai road (MDR-116) km 4/00 to 31/00   ,31,Major District Road,Black Top,,at various rd,,,50,,,,,,,,,,,Minor Damage,100,2,"Land side at hill side at  RD 20/700, 23/100 ,29/690 & 29/730",31.4133,76.561286,Self Visit,,
404,Bilaspur,Excessive Rain,27-08-2025,Ghandeer(Berthin),,Roads,Ghumarwin Berthin Shah Talai road (MDR-116) km 4/00 to 31/00                       ,31,Major District Road,Black Top,,at various rd,,,0,Additional R/Wall Required,20,,,,,,,,,,,15,R/wall require at RD 6/100,31.4133,76.561286,Self Visit,,
405,Bilaspur,Excessive Rain,26-08-2025,Ghandeer(Berthin),,Roads, Link Road to Vill. Ghandeer Road. 0/0 to 2/870,2.87,Village Road,Black Top,,at various rd,,150,0,,,,,,,,,,,Minor Damage,150,7.5,road crust damaged badly damaged ,31.402623,76.582004,Self Visit,,
406,Bilaspur,Excessive Rain,26-08-2025,Ghandeer(Berthin),,Roads,link road Balhseena to Tarelu Road. 0/0 to 2/500,2.5,Village Road,Black Top,,at various rd,,,120,,,,,,,,,,,Minor Damage,150,5.2,"road crust damaged,drain & berms damaged at various RD",31.416205,76.602384,Self Visit,,
407,Bilaspur,Excessive Rain,26-08-2025,Ghandeer(Berthin),,Roads,Link road to village Kuthera Road.(Kathiun Kuthera) 0/0 to 3/500,3.5,Village Road,Black Top,,at various rd,,200,0,,,,,,,,,,,Minor Damage,200,7.5,"road crust damaged,drain & berms damaged at various RD ",31.392625,76.596859,Self Visit,,
408,Bilaspur,Excessive Rain,02-09-2025,Nakhlehra(Jhandutta),,Roads,Nakhlehra lulhar via pasol ,5,Village Road,Black Top,,at various rd,1000,,1000,Minor Damage,50,,,,,,,,,Minor Damage,200,0.2, land slide at rd 2/900 to 2/950,31.315717,76.679303,Self Visit,,
409,Bilaspur,Excessive Rain,24-08-2025,Jhandutta(Jhandutta),,Roads,MDR-095 km 0/00 to 21/500,21.5,Major District Road,Black Top,,at various rd,2000,,2000,Minor Damage,50,Minor Damage,20,,,,,,,Minor Damage,120,0.85,Slips at Rd 17/740 to 17/810 Slips at Rd 0/090 to 0/130,31.359896,76.640268,Self Visit,,
